{
"type": "FeatureCollection",
"name": "italian-lpine-club-huts",
"features": [
{ "type": "Feature", "properties": { "name": "ABATE CARESTIA ANTONIO" }, "geometry": { "type": "Point", "coordinates": [ 7.89592, 45.803302 ] } },
{ "type": "Feature", "properties": { "name": "ADAME'" }, "geometry": { "type": "Point", "coordinates": [ 10.51918, 46.10271 ] } },
{ "type": "Feature", "properties": { "name": "ALAGNA VALSESIA" }, "geometry": { "type": "Point", "coordinates": [ 7.9543, 45.86072 ] } },
{ "type": "Feature", "properties": { "name": "ALBANI LUIGI" }, "geometry": { "type": "Point", "coordinates": [ 10.05613, 45.96616 ] } },
{ "type": "Feature", "properties": { "name": "ALBERICO CORRADO E BORGNA LUIGI" }, "geometry": { "type": "Point", "coordinates": [ 6.88992, 45.84492 ] } },
{ "type": "Feature", "properties": { "name": "ALLAVENA FRANCO" }, "geometry": { "type": "Point", "coordinates": [ 7.68377, 43.98859 ] } },
{ "type": "Feature", "properties": { "name": "ALLIEVI FRANCESCO-BONACOSSA ALDO E ALBERTO" }, "geometry": { "type": "Point", "coordinates": [ 9.663556, 46.287694 ] } },
{ "type": "Feature", "properties": { "name": "ALL'ORATORIO DI CUNEY" }, "geometry": { "type": "Point", "coordinates": [ 7.4841751, 45.8415305 ] } },
{ "type": "Feature", "properties": { "name": "ALPE CORTE" }, "geometry": { "type": "Point", "coordinates": [ 9.82394, 45.9578 ] } },
{ "type": "Feature", "properties": { "name": "ALPE DI COASSOLO" }, "geometry": { "type": "Point", "coordinates": [ 7.419871, 45.368084 ] } },
{ "type": "Feature", "properties": { "name": "ALPE HELO" }, "geometry": { "type": "Point", "coordinates": [ 8.155788, 45.932272 ] } },
{ "type": "Feature", "properties": { "name": "ALPE LAGHETTO" }, "geometry": { "type": "Point", "coordinates": [ 8.1468975541241, 46.128260319725001 ] } },
{ "type": "Feature", "properties": { "name": "ALPE MORIANA" }, "geometry": { "type": "Point", "coordinates": [ 8.026107, 45.942315 ] } },
{ "type": "Feature", "properties": { "name": "ALPE NUOVO" }, "geometry": { "type": "Point", "coordinates": [ 8.456145, 45.894098 ] } },
{ "type": "Feature", "properties": { "name": "ALPE PRIMALPIA" }, "geometry": { "type": "Point", "coordinates": [ 9.54347, 46.20644 ] } },
{ "type": "Feature", "properties": { "name": "ALPE SALEI" }, "geometry": { "type": "Point", "coordinates": [ 7.955506, 45.75319 ] } },
{ "type": "Feature", "properties": { "name": "ALPE TOSO" }, "geometry": { "type": "Point", "coordinates": [ 7.970304, 45.7262 ] } },
{ "type": "Feature", "properties": { "name": "ALPETTO" }, "geometry": { "type": "Point", "coordinates": [ 7.12645, 44.65889 ] } },
{ "type": "Feature", "properties": { "name": "ALPINISTI MONZESI" }, "geometry": { "type": "Point", "coordinates": [ 9.4649385, 45.8489821 ] } },
{ "type": "Feature", "properties": { "name": "ALTISSIMO/CHIESA DAMIANO" }, "geometry": { "type": "Point", "coordinates": [ 10.890384, 45.81037 ] } },
{ "type": "Feature", "properties": { "name": "AMEDEO PIROZZINI ALL'ALPE LAGO" }, "geometry": { "type": "Point", "coordinates": [ 8.230368, 45.967834 ] } },
{ "type": "Feature", "properties": { "name": "AMPRIMO ONELIO" }, "geometry": { "type": "Point", "coordinates": [ 7.1449313, 45.099074 ] } },
{ "type": "Feature", "properties": { "name": "ANDOLLA (NUOVO E VECCHIO)" }, "geometry": { "type": "Point", "coordinates": [ 8.070599, 46.095002 ] } },
{ "type": "Feature", "properties": { "name": "ANGELINI GIOVANNI" }, "geometry": { "type": "Point", "coordinates": [ 12.174857, 46.326381 ] } },
{ "type": "Feature", "properties": { "name": "ANTELAO" }, "geometry": { "type": "Point", "coordinates": [ 12.324744, 46.448031 ] } },
{ "type": "Feature", "properties": { "name": "ANTERMOIA" }, "geometry": { "type": "Point", "coordinates": [ 11.663939, 46.477027 ] } },
{ "type": "Feature", "properties": { "name": "ANTIGINE" }, "geometry": { "type": "Point", "coordinates": [ 8.0126642, 46.019655 ] } },
{ "type": "Feature", "properties": { "name": "APRICA" }, "geometry": { "type": "Point", "coordinates": [ 10.1601, 46.1398 ] } },
{ "type": "Feature", "properties": { "name": "ARGENTEA" }, "geometry": { "type": "Point", "coordinates": [ 8.641779, 44.43818 ] } },
{ "type": "Feature", "properties": { "name": "ARONTE" }, "geometry": { "type": "Point", "coordinates": [ 10.220174, 44.112519 ] } },
{ "type": "Feature", "properties": { "name": "AUGUSTO PALA già HINDERBALMO" }, "geometry": { "type": "Point", "coordinates": [ 7.937628, 45.975362 ] } },
{ "type": "Feature", "properties": { "name": "AURONZO" }, "geometry": { "type": "Point", "coordinates": [ 12.296109, 46.612191 ] } },
{ "type": "Feature", "properties": { "name": "AVIOLO-SANDRO OCCHI" }, "geometry": { "type": "Point", "coordinates": [ 10.4149732, 46.1977307 ] } },
{ "type": "Feature", "properties": { "name": "BAFILE ANDREA M.O." }, "geometry": { "type": "Point", "coordinates": [ 13.57186, 42.46861 ] } },
{ "type": "Feature", "properties": { "name": "BAILONI RAFFAELE" }, "geometry": { "type": "Point", "coordinates": [ 11.1812637, 46.0233744 ] } },
{ "type": "Feature", "properties": { "name": "BAITA BAGNERI" }, "geometry": { "type": "Point", "coordinates": [ 7.947946, 45.577925 ] } },
{ "type": "Feature", "properties": { "name": "BAITA BELEM" }, "geometry": { "type": "Point", "coordinates": [ 11.27727, 45.96225 ] } },
{ "type": "Feature", "properties": { "name": "BAITA BIAENA" }, "geometry": { "type": "Point", "coordinates": [ 10.96981, 45.88398 ] } },
{ "type": "Feature", "properties": { "name": "BAITA BUEGGIO" }, "geometry": { "type": "Point", "coordinates": [ 10.10714, 46.02326 ] } },
{ "type": "Feature", "properties": { "name": "BAITA CAI BOVISIO MASCIAGO" }, "geometry": { "type": "Point", "coordinates": [ 10.1128606, 45.9585496 ] } },
{ "type": "Feature", "properties": { "name": "BAITA CERNELLO" }, "geometry": { "type": "Point", "coordinates": [ 9.8870608, 46.0020365 ] } },
{ "type": "Feature", "properties": { "name": "BAITA DEL CANGI" }, "geometry": { "type": "Point", "coordinates": [ 11.3105743, 45.9703894 ] } },
{ "type": "Feature", "properties": { "name": "BAITA DEL MEDEN " }, "geometry": { "type": "Point", "coordinates": [ 10.1109, 46.1124 ] } },
{ "type": "Feature", "properties": { "name": "BAITA FONTANEDO" }, "geometry": { "type": "Point", "coordinates": [ 10.3574098, 45.9108171 ] } },
{ "type": "Feature", "properties": { "name": "BAITA FOS-CE" }, "geometry": { "type": "Point", "coordinates": [ 10.88641, 45.78584 ] } },
{ "type": "Feature", "properties": { "name": "BAITA GIMONT" }, "geometry": { "type": "Point", "coordinates": [ 6.765748, 44.921525 ] } },
{ "type": "Feature", "properties": { "name": "BAITA GRIGNASCO" }, "geometry": { "type": "Point", "coordinates": [ 7.92396, 45.86659 ] } },
{ "type": "Feature", "properties": { "name": "BAITA ISEO" }, "geometry": { "type": "Point", "coordinates": [ 10.304659, 46.02351 ] } },
{ "type": "Feature", "properties": { "name": "BAITA MANZARA" }, "geometry": { "type": "Point", "coordinates": [ 11.1776, 46.4886 ] } },
{ "type": "Feature", "properties": { "name": "BAITA MONTE ALTO" }, "geometry": { "type": "Point", "coordinates": [ 9.9697632, 45.8324588 ] } },
{ "type": "Feature", "properties": { "name": "BAITA OMEGNA" }, "geometry": { "type": "Point", "coordinates": [ 8.447446, 45.880173 ] } },
{ "type": "Feature", "properties": { "name": "BAITA SAN GIACOMO" }, "geometry": { "type": "Point", "coordinates": [ 7.41441, 45.324664 ] } },
{ "type": "Feature", "properties": { "name": "BAITA S.A.T. IN BONDONE" }, "geometry": { "type": "Point", "coordinates": [ 11.068888, 46.021388 ] } },
{ "type": "Feature", "properties": { "name": "BAITA VAL VALLARO" }, "geometry": { "type": "Point", "coordinates": [ 10.43715, 46.22901 ] } },
{ "type": "Feature", "properties": { "name": "BAITIN DUL PEURAT" }, "geometry": { "type": "Point", "coordinates": [ 8.4489458, 46.2174989 ] } },
{ "type": "Feature", "properties": { "name": "BALESTRERI UMBERTO" }, "geometry": { "type": "Point", "coordinates": [ 7.609674, 45.947658 ] } },
{ "type": "Feature", "properties": { "name": "BALICCO MARCO E RAIMONDO" }, "geometry": { "type": "Point", "coordinates": [ 9.66343, 46.05491 ] } },
{ "type": "Feature", "properties": { "name": "BALMA" }, "geometry": { "type": "Point", "coordinates": [ 7.190245, 45.040857 ] } },
{ "type": "Feature", "properties": { "name": "BALZOLA MARIO" }, "geometry": { "type": "Point", "coordinates": [ 7.269506, 45.601782 ] } },
{ "type": "Feature", "properties": { "name": "BARABINO DAMIANO" }, "geometry": { "type": "Point", "coordinates": [ 8.83719, 44.54058 ] } },
{ "type": "Feature", "properties": { "name": "BARBA GIOVANNI/FERRERO LUCIANO" }, "geometry": { "type": "Point", "coordinates": [ 7.909939, 45.902737 ] } },
{ "type": "Feature", "properties": { "name": "BARBERO ROBERTO" }, "geometry": { "type": "Point", "coordinates": [ 7.316153, 44.22177 ] } },
{ "type": "Feature", "properties": { "name": "BARENGHI GIUSEPPE" }, "geometry": { "type": "Point", "coordinates": [ 6.86574, 44.529156 ] } },
{ "type": "Feature", "properties": { "name": "BARONI ANTONIO" }, "geometry": { "type": "Point", "coordinates": [ 9.96036, 46.06227 ] } },
{ "type": "Feature", "properties": { "name": "BARONI SERGIO" }, "geometry": { "type": "Point", "coordinates": [ 12.39671, 46.33889 ] } },
{ "type": "Feature", "properties": { "name": "BARRASSO PAOLO" }, "geometry": { "type": "Point", "coordinates": [ 14.060833, 42.135833 ] } },
{ "type": "Feature", "properties": { "name": "BATTAGLIONE ALPINI MONTE GRANERO" }, "geometry": { "type": "Point", "coordinates": [ 7.045272, 44.728075 ] } },
{ "type": "Feature", "properties": { "name": "BATTAGLIONE CADORE" }, "geometry": { "type": "Point", "coordinates": [ 12.398832, 46.616845 ] } },
{ "type": "Feature", "properties": { "name": "BATTISTI CESARE" }, "geometry": { "type": "Point", "coordinates": [ 11.15153, 45.69706 ] } },
{ "type": "Feature", "properties": { "name": "BATTISTI CESARE" }, "geometry": { "type": "Point", "coordinates": [ 10.412668, 44.262086 ] } },
{ "type": "Feature", "properties": { "name": "BEGEY ERNESTO" }, "geometry": { "type": "Point", "coordinates": [ 10.6115, 46.1826 ] } },
{ "type": "Feature", "properties": { "name": "BELLONI VALENTINO" }, "geometry": { "type": "Point", "coordinates": [ 7.899502, 45.96304 ] } },
{ "type": "Feature", "properties": { "name": "BENIGNI CESARE" }, "geometry": { "type": "Point", "coordinates": [ 9.561919, 46.021374 ] } },
{ "type": "Feature", "properties": { "name": "BERARDO CARLO E RENZO" }, "geometry": { "type": "Point", "coordinates": [ 7.072002, 44.648328 ] } },
{ "type": "Feature", "properties": { "name": "BERNARDINIS A." }, "geometry": { "type": "Point", "coordinates": [ 13.42416, 46.47642 ] } },
{ "type": "Feature", "properties": { "name": "BERNI ARNALDO" }, "geometry": { "type": "Point", "coordinates": [ 10.4999363, 46.3591969 ] } },
{ "type": "Feature", "properties": { "name": "BERTACCHI GIOVANNI" }, "geometry": { "type": "Point", "coordinates": [ 9.378711, 46.469083 ] } },
{ "type": "Feature", "properties": { "name": "BERTAGNOLI BEPI" }, "geometry": { "type": "Point", "coordinates": [ 11.1652517, 45.6732721 ] } },
{ "type": "Feature", "properties": { "name": "BERTARELLI GUIDO-QUINTO ALPINI" }, "geometry": { "type": "Point", "coordinates": [ 10.5383048, 46.4816123 ] } },
{ "type": "Feature", "properties": { "name": "BERTI ANTONIO" }, "geometry": { "type": "Point", "coordinates": [ 12.405806, 46.630971 ] } },
{ "type": "Feature", "properties": { "name": "BERTOGLIO PIETRO" }, "geometry": { "type": "Point", "coordinates": [ 7.09335, 44.63783 ] } },
{ "type": "Feature", "properties": { "name": "BERTOLUTTI" }, "geometry": { "type": "Point", "coordinates": [ 13.53125, 46.38736 ] } },
{ "type": "Feature", "properties": { "name": "BIANCHET FURIO" }, "geometry": { "type": "Point", "coordinates": [ 12.1612364, 46.2433361 ] } },
{ "type": "Feature", "properties": { "name": "BIANCHI GIUSEPPE" }, "geometry": { "type": "Point", "coordinates": [ 13.24699, 46.45835 ] } },
{ "type": "Feature", "properties": { "name": "BIANCO DANTE LIVIO" }, "geometry": { "type": "Point", "coordinates": [ 7.24795, 44.246146 ] } },
{ "type": "Feature", "properties": { "name": "BIASIN GIANCARLO" }, "geometry": { "type": "Point", "coordinates": [ 11.951288, 46.274683 ] } },
{ "type": "Feature", "properties": { "name": "BIETTI/BUZZI" }, "geometry": { "type": "Point", "coordinates": [ 9.37366, 45.95469 ] } },
{ "type": "Feature", "properties": { "name": "BIGNAMI ROBERTO" }, "geometry": { "type": "Point", "coordinates": [ 9.949897, 46.329197 ] } },
{ "type": "Feature", "properties": { "name": "BIJELICH COLOMBO AURORA" }, "geometry": { "type": "Point", "coordinates": [ 9.8312118, 46.358724 ] } },
{ "type": "Feature", "properties": { "name": "BINATE" }, "geometry": { "type": "Point", "coordinates": [ 9.1024553, 45.9027993 ] } },
{ "type": "Feature", "properties": { "name": "BLAIS WALTER" }, "geometry": { "type": "Point", "coordinates": [ 6.88126, 45.13521 ] } },
{ "type": "Feature", "properties": { "name": "BOBBA GIOVANNI" }, "geometry": { "type": "Point", "coordinates": [ 7.598963, 45.933811 ] } },
{ "type": "Feature", "properties": { "name": "BOCCA DI TRAT/PERNICI NINO" }, "geometry": { "type": "Point", "coordinates": [ 10.768671, 45.926626 ] } },
{ "type": "Feature", "properties": { "name": "BOCCALATTE GABRIELE/PIOLTI MARIO" }, "geometry": { "type": "Point", "coordinates": [ 6.97732, 45.853115 ] } },
{ "type": "Feature", "properties": { "name": "BOCCO SANDRO/ZAGO MARCO" }, "geometry": { "type": "Point", "coordinates": [ 12.190694, 46.231001 ] } },
{ "type": "Feature", "properties": { "name": "BODO WALTER" }, "geometry": { "type": "Point", "coordinates": [ 11.9396633, 46.1682416 ] } },
{ "type": "Feature", "properties": { "name": "BOE'" }, "geometry": { "type": "Point", "coordinates": [ 11.823278, 46.51461 ] } },
{ "type": "Feature", "properties": { "name": "BOFFALORA/PAOLO MAJERNA" }, "geometry": { "type": "Point", "coordinates": [ 8.0624595, 45.9193675 ] } },
{ "type": "Feature", "properties": { "name": "BOLZANO AL MONTE PEZ" }, "geometry": { "type": "Point", "coordinates": [ 11.574562, 46.507326 ] } },
{ "type": "Feature", "properties": { "name": "BONANNI GIUSEPPE" }, "geometry": { "type": "Point", "coordinates": [ 13.01519, 42.51104 ] } },
{ "type": "Feature", "properties": { "name": "BONASSON PRIMO" }, "geometry": { "type": "Point", "coordinates": [ 8.453297, 46.233659 ] } },
{ "type": "Feature", "properties": { "name": "BONTADINI ERNESTO" }, "geometry": { "type": "Point", "coordinates": [ 11.88829, 46.46347 ] } },
{ "type": "Feature", "properties": { "name": "BORELLI LORENZO" }, "geometry": { "type": "Point", "coordinates": [ 6.9092, 45.80709 ] } },
{ "type": "Feature", "properties": { "name": "BORGHI STEFANO" }, "geometry": { "type": "Point", "coordinates": [ 7.314, 45.526976 ] } },
{ "type": "Feature", "properties": { "name": "BORRETTI MAURO/SCHRANZ WALTER" }, "geometry": { "type": "Point", "coordinates": [ 7.972242, 45.951302 ] } },
{ "type": "Feature", "properties": { "name": "BOSIO CARLO/BOSIO GALLI ANNA" }, "geometry": { "type": "Point", "coordinates": [ 9.7770172, 46.2371222 ] } },
{ "type": "Feature", "properties": { "name": "BOSSI ORESTE" }, "geometry": { "type": "Point", "coordinates": [ 7.6692667, 45.9714956 ] } },
{ "type": "Feature", "properties": { "name": "BOTTARI LORENZO" }, "geometry": { "type": "Point", "coordinates": [ 11.85159, 46.34007 ] } },
{ "type": "Feature", "properties": { "name": "BOZ BRUNO" }, "geometry": { "type": "Point", "coordinates": [ 11.916463, 46.14659 ] } },
{ "type": "Feature", "properties": { "name": "BOZANO LORENZO" }, "geometry": { "type": "Point", "coordinates": [ 7.293644, 44.185321 ] } },
{ "type": "Feature", "properties": { "name": "BOZZI ANGELINO" }, "geometry": { "type": "Point", "coordinates": [ 10.569491, 46.303185 ] } },
{ "type": "Feature", "properties": { "name": "BRANCA CESARE/MARTINELLI GENESIO" }, "geometry": { "type": "Point", "coordinates": [ 10.35, 46.24 ] } },
{ "type": "Feature", "properties": { "name": "BRASCA LUIGI" }, "geometry": { "type": "Point", "coordinates": [ 9.532222, 46.265277 ] } },
{ "type": "Feature", "properties": { "name": "BRENVA (DELLA)" }, "geometry": { "type": "Point", "coordinates": [ 6.9053255, 45.8348708 ] } },
{ "type": "Feature", "properties": { "name": "BRIOSCHI LUIGI" }, "geometry": { "type": "Point", "coordinates": [ 9.387556, 45.95325 ] } },
{ "type": "Feature", "properties": { "name": "BROLLO D." }, "geometry": { "type": "Point", "coordinates": [ 13.292188, 46.3218717 ] } },
{ "type": "Feature", "properties": { "name": "BRUFFIONE" }, "geometry": { "type": "Point", "coordinates": [ 10.509269, 45.9195948 ] } },
{ "type": "Feature", "properties": { "name": "BRUNNER GIORGIO" }, "geometry": { "type": "Point", "coordinates": [ 13.31794, 46.25409 ] } },
{ "type": "Feature", "properties": { "name": "BRUNNER" }, "geometry": { "type": "Point", "coordinates": [ 13.5308, 46.42363 ] } },
{ "type": "Feature", "properties": { "name": "BUCA D'ANSCIANO" }, "geometry": { "type": "Point", "coordinates": [ 12.59826, 43.35506 ] } },
{ "type": "Feature", "properties": { "name": "BUSA DELLE DODESE/LENZI RUGGERO" }, "geometry": { "type": "Point", "coordinates": [ 11.4805571, 46.0011755 ] } },
{ "type": "Feature", "properties": { "name": "BUSETTINI ALBERTO" }, "geometry": { "type": "Point", "coordinates": [ 13.67873, 46.4392 ] } },
{ "type": "Feature", "properties": { "name": "BUZZI ALVARO/MORELLI COSTANZO" }, "geometry": { "type": "Point", "coordinates": [ 7.313337, 44.191326 ] } },
{ "type": "Feature", "properties": { "name": "BUZZONI GIUSEPPE" }, "geometry": { "type": "Point", "coordinates": [ 9.49304, 45.9812 ] } },
{ "type": "Feature", "properties": { "name": "CA' BIANCA" }, "geometry": { "type": "Point", "coordinates": [ 9.2834818, 46.4044545 ] } },
{ "type": "Feature", "properties": { "name": "CA' DELL'ALPE" }, "geometry": { "type": "Point", "coordinates": [ 9.3306615, 45.9718663 ] } },
{ "type": "Feature", "properties": { "name": "CA DI ROSSI" }, "geometry": { "type": "Point", "coordinates": [ 11.82236, 43.97077 ] } },
{ "type": "Feature", "properties": { "name": "CA' DI TORRI" }, "geometry": { "type": "Point", "coordinates": [ 11.0324, 44.06476 ] } },
{ "type": "Feature", "properties": { "name": "CA' ROVELLASCA" }, "geometry": { "type": "Point", "coordinates": [ 9.52603, 45.93035 ] } },
{ "type": "Feature", "properties": { "name": "CAI ALATRI" }, "geometry": { "type": "Point", "coordinates": [ 13.3321106, 41.830843 ] } },
{ "type": "Feature", "properties": { "name": "C.A.I. BORMIO" }, "geometry": { "type": "Point", "coordinates": [ 10.197833, 46.420963 ] } },
{ "type": "Feature", "properties": { "name": "CAI ERICE" }, "geometry": { "type": "Point", "coordinates": [ 12.58938, 38.03971 ] } },
{ "type": "Feature", "properties": { "name": "C.A.I FORMAZZA" }, "geometry": { "type": "Point", "coordinates": [ 8.43062, 46.43721 ] } },
{ "type": "Feature", "properties": { "name": "C.A.I. GORIZIA" }, "geometry": { "type": "Point", "coordinates": [ 13.5181517, 46.4257632 ] } },
{ "type": "Feature", "properties": { "name": "CAI LEFFE" }, "geometry": { "type": "Point", "coordinates": [ 9.8353, 45.9012 ] } },
{ "type": "Feature", "properties": { "name": "CAI MONTEFELTRO" }, "geometry": { "type": "Point", "coordinates": [ 12.762243, 43.615003 ] } },
{ "type": "Feature", "properties": { "name": "C.A.I. SARONNO" }, "geometry": { "type": "Point", "coordinates": [ 7.92495, 45.9663 ] } },
{ "type": "Feature", "properties": { "name": "C.A.I. SEVESO" }, "geometry": { "type": "Point", "coordinates": [ 10.54025, 46.38658 ] } },
{ "type": "Feature", "properties": { "name": "CALCIATI CESARE" }, "geometry": { "type": "Point", "coordinates": [ 11.32556, 46.98568 ] } },
{ "type": "Feature", "properties": { "name": "CALDARINI ANGELO E SECONDA" }, "geometry": { "type": "Point", "coordinates": [ 10.1945452, 46.4023495 ] } },
{ "type": "Feature", "properties": { "name": "CALDERARI MARIO" }, "geometry": { "type": "Point", "coordinates": [ 13.337169, 41.832646 ] } },
{ "type": "Feature", "properties": { "name": "CALVI FRATELLI" }, "geometry": { "type": "Point", "coordinates": [ 9.8769078, 46.0234559 ] } },
{ "type": "Feature", "properties": { "name": "CALVI PIER FORTUNATO" }, "geometry": { "type": "Point", "coordinates": [ 12.7267474, 46.6239554 ] } },
{ "type": "Feature", "properties": { "name": "CAMPOSECCO" }, "geometry": { "type": "Point", "coordinates": [ 8.050166, 46.058627 ] } },
{ "type": "Feature", "properties": { "name": "CANALI JACK" }, "geometry": { "type": "Point", "coordinates": [ 10.70419, 46.24833 ] } },
{ "type": "Feature", "properties": { "name": "CANTONI MAURILIO" }, "geometry": { "type": "Point", "coordinates": [ 10.2762187, 46.4296063 ] } },
{ "type": "Feature", "properties": { "name": "CANZIANI UMBERTO/HOCHSTER HUTTE" }, "geometry": { "type": "Point", "coordinates": [ 10.7990245, 46.4826159 ] } },
{ "type": "Feature", "properties": { "name": "CANZIO ETTORE" }, "geometry": { "type": "Point", "coordinates": [ 6.9744332, 45.867346 ] } },
{ "type": "Feature", "properties": { "name": "CAPANNA AOSTA" }, "geometry": { "type": "Point", "coordinates": [ 7.561438, 45.969558 ] } },
{ "type": "Feature", "properties": { "name": "CAPANNA DELLE AQUILE" }, "geometry": { "type": "Point", "coordinates": [ 9.1599352, 46.1693881 ] } },
{ "type": "Feature", "properties": { "name": "CAPANNA OSSERVATORIO RIFUGIO MARGHERITA" }, "geometry": { "type": "Point", "coordinates": [ 7.8770155, 45.9270668 ] } },
{ "type": "Feature", "properties": { "name": "CAPANNA SARACCO ERALDO/VOLANTE CESARE" }, "geometry": { "type": "Point", "coordinates": [ 7.708174, 44.168235 ] } },
{ "type": "Feature", "properties": { "name": "CAPANNA SCHIO" }, "geometry": { "type": "Point", "coordinates": [ 11.170758, 45.726399 ] } },
{ "type": "Feature", "properties": { "name": "CAPRARI AMERINO" }, "geometry": { "type": "Point", "coordinates": [ 9.8343974, 46.0577162 ] } },
{ "type": "Feature", "properties": { "name": "CARATE BRIANZA" }, "geometry": { "type": "Point", "coordinates": [ 9.901805, 46.330112 ] } },
{ "type": "Feature", "properties": { "name": "CARDUCCI GIOSUE'" }, "geometry": { "type": "Point", "coordinates": [ 12.373643, 46.615189 ] } },
{ "type": "Feature", "properties": { "name": "CARE' ALTO/ONGARI DANTE" }, "geometry": { "type": "Point", "coordinates": [ 10.626106, 46.107638 ] } },
{ "type": "Feature", "properties": { "name": "CARESTIATO BRUTO" }, "geometry": { "type": "Point", "coordinates": [ 12.070487, 46.321359 ] } },
{ "type": "Feature", "properties": { "name": "CARMAGNOLA" }, "geometry": { "type": "Point", "coordinates": [ 6.943433, 44.548618 ] } },
{ "type": "Feature", "properties": { "name": "CARNIELLI GIAN MARIO/DE MARCHI GIULIANO" }, "geometry": { "type": "Point", "coordinates": [ 12.181299, 46.314729 ] } },
{ "type": "Feature", "properties": { "name": "CARNIZZA" }, "geometry": { "type": "Point", "coordinates": [ 13.5219, 46.43486 ] } },
{ "type": "Feature", "properties": { "name": "CARRARA" }, "geometry": { "type": "Point", "coordinates": [ 10.123885, 44.118689 ] } },
{ "type": "Feature", "properties": { "name": "CASA ALPINA COZZI" }, "geometry": { "type": "Point", "coordinates": [ 9.8722486, 46.2627208 ] } },
{ "type": "Feature", "properties": { "name": "CASA ALPINA VALBRUNA" }, "geometry": { "type": "Point", "coordinates": [ 13.4922875, 46.4929893 ] } },
{ "type": "Feature", "properties": { "name": "CASA CADORNA RICOVERO" }, "geometry": { "type": "Point", "coordinates": [ 13.55951, 45.83612 ] } },
{ "type": "Feature", "properties": { "name": "CASALE DEL PIANO" }, "geometry": { "type": "Point", "coordinates": [ 12.5133, 42.4417 ] } },
{ "type": "Feature", "properties": { "name": "CASAROTA/CIOLA LIVIO" }, "geometry": { "type": "Point", "coordinates": [ 11.19551, 45.95439 ] } },
{ "type": "Feature", "properties": { "name": "CASAROTTO RENATO" }, "geometry": { "type": "Point", "coordinates": [ 15.1012, 37.7969 ] } },
{ "type": "Feature", "properties": { "name": "CASATI GIANNI-GUASTI ALESSANDRO" }, "geometry": { "type": "Point", "coordinates": [ 10.602306, 46.462861 ] } },
{ "type": "Feature", "properties": { "name": "CASE DI BLES" }, "geometry": { "type": "Point", "coordinates": [ 10.44, 46.266 ] } },
{ "type": "Feature", "properties": { "name": "CASE DI BLES" }, "geometry": { "type": "Point", "coordinates": [ 10.439859, 46.26632 ] } },
{ "type": "Feature", "properties": { "name": "CASERA BOSCONERO" }, "geometry": { "type": "Point", "coordinates": [ 12.251745, 46.338052 ] } },
{ "type": "Feature", "properties": { "name": "CASERA CAMPESTRIN" }, "geometry": { "type": "Point", "coordinates": [ 12.27812, 46.34779 ] } },
{ "type": "Feature", "properties": { "name": "CASERA CERESERA" }, "geometry": { "type": "Point", "coordinates": [ 12.4535675, 46.0634754 ] } },
{ "type": "Feature", "properties": { "name": "CASERA DEI DOSSI" }, "geometry": { "type": "Point", "coordinates": [ 9.8313633, 46.0285001 ] } },
{ "type": "Feature", "properties": { "name": "CASERA FRATE DE SORA" }, "geometry": { "type": "Point", "coordinates": [ 12.5380366, 46.2470687 ] } },
{ "type": "Feature", "properties": { "name": "CASERA FRUGNA" }, "geometry": { "type": "Point", "coordinates": [ 12.41786, 46.23371 ] } },
{ "type": "Feature", "properties": { "name": "CASERA MEDASSA" }, "geometry": { "type": "Point", "coordinates": [ 12.198261, 46.213878 ] } },
{ "type": "Feature", "properties": { "name": "CASERA PAL GRANDE DI SOPRA" }, "geometry": { "type": "Point", "coordinates": [ 12.99391, 46.59951 ] } },
{ "type": "Feature", "properties": { "name": "CASERA PRAMAGGIORE" }, "geometry": { "type": "Point", "coordinates": [ 12.5669, 46.3599 ] } },
{ "type": "Feature", "properties": { "name": "CASERA VECCHIA DI VARRONE" }, "geometry": { "type": "Point", "coordinates": [ 9.4994723, 46.0346876 ] } },
{ "type": "Feature", "properties": { "name": "CASETTO" }, "geometry": { "type": "Point", "coordinates": [ 11.836034, 44.602263 ] } },
{ "type": "Feature", "properties": { "name": "CASINA BIANCA" }, "geometry": { "type": "Point", "coordinates": [ 9.75121, 45.87196 ] } },
{ "type": "Feature", "properties": { "name": "CASINA COGORNA" }, "geometry": { "type": "Point", "coordinates": [ 10.79734, 45.98412 ] } },
{ "type": "Feature", "properties": { "name": "CASONETTO" }, "geometry": { "type": "Point", "coordinates": [ 15.19183, 41.36288 ] } },
{ "type": "Feature", "properties": { "name": "CASORATE SEMPIONE" }, "geometry": { "type": "Point", "coordinates": [ 9.5159311, 46.2383252 ] } },
{ "type": "Feature", "properties": { "name": "CASOTTO" }, "geometry": { "type": "Point", "coordinates": [ 13.295525, 41.465176 ] } },
{ "type": "Feature", "properties": { "name": "CASSINELLI" }, "geometry": { "type": "Point", "coordinates": [ 10.076631, 45.942208 ] } },
{ "type": "Feature", "properties": { "name": "CASTELLINO METTOLO/GASTONE ORESTE" }, "geometry": { "type": "Point", "coordinates": [ 7.742218, 44.246035 ] } },
{ "type": "Feature", "properties": { "name": "CASTELNUOVO A. DANTE" }, "geometry": { "type": "Point", "coordinates": [ 8.439215, 46.096541 ] } },
{ "type": "Feature", "properties": { "name": "CASTIGLIONI ENRICO" }, "geometry": { "type": "Point", "coordinates": [ 8.2610121, 46.3204079 ] } },
{ "type": "Feature", "properties": { "name": "CASTROGIOVANNI ATTILIO" }, "geometry": { "type": "Point", "coordinates": [ 15.0991, 37.7793 ] } },
{ "type": "Feature", "properties": { "name": "CAVARERO FRANCO" }, "geometry": { "type": "Point", "coordinates": [ 7.8103653, 44.1794736 ] } },
{ "type": "Feature", "properties": { "name": "CAVAZZA FRANCO" }, "geometry": { "type": "Point", "coordinates": [ 11.8219459, 46.5364745 ] } },
{ "type": "Feature", "properties": { "name": "CAVINATO" }, "geometry": { "type": "Point", "coordinates": [ 11.604753, 46.176771 ] } },
{ "type": "Feature", "properties": { "name": "CECCHINI GIOVANNI" }, "geometry": { "type": "Point", "coordinates": [ 9.2845225, 46.4759086 ] } },
{ "type": "Feature", "properties": { "name": "CECILIA GENISIO" }, "geometry": { "type": "Point", "coordinates": [ 7.333537, 45.404139 ] } },
{ "type": "Feature", "properties": { "name": "CEDERNA ANTONIO/MAFFINA F.LLI" }, "geometry": { "type": "Point", "coordinates": [ 9.9882011, 46.2669344 ] } },
{ "type": "Feature", "properties": { "name": "CERRI DI SANT'AMATO" }, "geometry": { "type": "Point", "coordinates": [ 14.99504, 40.742039 ] } },
{ "type": "Feature", "properties": { "name": "CEVEDALE/LARCHER GUIDO" }, "geometry": { "type": "Point", "coordinates": [ 10.665996, 46.436905 ] } },
{ "type": "Feature", "properties": { "name": "CHIARELLA FRANCESCO ALL'AMIANTHE" }, "geometry": { "type": "Point", "coordinates": [ 7.3046433, 45.9102874 ] } },
{ "type": "Feature", "properties": { "name": "CHIAVENNA" }, "geometry": { "type": "Point", "coordinates": [ 9.4020026, 46.4030222 ] } },
{ "type": "Feature", "properties": { "name": "CHIGGIATO GIOVANNI E DINO" }, "geometry": { "type": "Point", "coordinates": [ 12.34743, 46.482834 ] } },
{ "type": "Feature", "properties": { "name": "CHIUSA AL CAMPACCIO" }, "geometry": { "type": "Point", "coordinates": [ 11.521272, 46.699886 ] } },
{ "type": "Feature", "properties": { "name": "CIAMPEDIE'" }, "geometry": { "type": "Point", "coordinates": [ 11.6642711, 46.4338434 ] } },
{ "type": "Feature", "properties": { "name": "CIAREIDO" }, "geometry": { "type": "Point", "coordinates": [ 12.39694, 46.51283 ] } },
{ "type": "Feature", "properties": { "name": "CIBRARIO LUIGI" }, "geometry": { "type": "Point", "coordinates": [ 7.147077, 45.246844 ] } },
{ "type": "Feature", "properties": { "name": "CICCAGLIA" }, "geometry": { "type": "Point", "coordinates": [ 12.792311, 42.865144 ] } },
{ "type": "Feature", "properties": { "name": "CIMA D'ASTA/BRENTARI OTTONE" }, "geometry": { "type": "Point", "coordinates": [ 11.604399, 46.170296 ] } },
{ "type": "Feature", "properties": { "name": "CIMA PRESANELLA/BRIGATA OROBICA" }, "geometry": { "type": "Point", "coordinates": [ 10.66747, 46.217018 ] } },
{ "type": "Feature", "properties": { "name": "CIMA SASSARA/F.LLI BONVECCHIO" }, "geometry": { "type": "Point", "coordinates": [ 10.891451, 46.253986 ] } },
{ "type": "Feature", "properties": { "name": "CITELLI SALVATORE" }, "geometry": { "type": "Point", "coordinates": [ 15.0596722, 37.7651639 ] } },
{ "type": "Feature", "properties": { "name": "CITTA' DI AMANDOLA" }, "geometry": { "type": "Point", "coordinates": [ 13.28679, 42.96596 ] } },
{ "type": "Feature", "properties": { "name": "CITTA' DI ARONA" }, "geometry": { "type": "Point", "coordinates": [ 8.148459, 46.274452 ] } },
{ "type": "Feature", "properties": { "name": "CITTA' DI BORGOMANERO" }, "geometry": { "type": "Point", "coordinates": [ 8.22407, 45.916598 ] } },
{ "type": "Feature", "properties": { "name": "CITTA' DI BRESSANONE ALLA PLOSE" }, "geometry": { "type": "Point", "coordinates": [ 11.73221, 46.694817 ] } },
{ "type": "Feature", "properties": { "name": "CITTA' DI BUSTO" }, "geometry": { "type": "Point", "coordinates": [ 8.3630611, 46.4339605 ] } },
{ "type": "Feature", "properties": { "name": "CITTA' DI CANTU'" }, "geometry": { "type": "Point", "coordinates": [ 10.547887, 46.496014 ] } },
{ "type": "Feature", "properties": { "name": "CITTA' DI CARPI" }, "geometry": { "type": "Point", "coordinates": [ 12.2908019, 46.5622533 ] } },
{ "type": "Feature", "properties": { "name": "CITTA' DI CIRIE'" }, "geometry": { "type": "Point", "coordinates": [ 7.163568, 45.30717 ] } },
{ "type": "Feature", "properties": { "name": "CITTA' DI CLUSONE" }, "geometry": { "type": "Point", "coordinates": [ 10.0627381, 45.9507801 ] } },
{ "type": "Feature", "properties": { "name": "CITTA' DI FIUME" }, "geometry": { "type": "Point", "coordinates": [ 12.12258, 46.436897 ] } },
{ "type": "Feature", "properties": { "name": "CITTA' DI FORLI'" }, "geometry": { "type": "Point", "coordinates": [ 11.73075, 43.86667 ] } },
{ "type": "Feature", "properties": { "name": "CITTA' DI GALLARATE" }, "geometry": { "type": "Point", "coordinates": [ 7.8772939, 45.9519718 ] } },
{ "type": "Feature", "properties": { "name": "CITTA' DI JESI" }, "geometry": { "type": "Point", "coordinates": [ 12.972022, 43.405905 ] } },
{ "type": "Feature", "properties": { "name": "CITTA' DI LISSONE" }, "geometry": { "type": "Point", "coordinates": [ 10.496678, 46.08319 ] } },
{ "type": "Feature", "properties": { "name": "CITTA' DI LUINO" }, "geometry": { "type": "Point", "coordinates": [ 7.9099774, 45.9967831 ] } },
{ "type": "Feature", "properties": { "name": "CITTA' DI MACHERIO" }, "geometry": { "type": "Point", "coordinates": [ 10.4368334, 46.0212419 ] } },
{ "type": "Feature", "properties": { "name": "CITTA' DI MARIANO" }, "geometry": { "type": "Point", "coordinates": [ 7.716441, 45.899519 ] } },
{ "type": "Feature", "properties": { "name": "CITTA' DI MORTARA-GRANDE HALTE" }, "geometry": { "type": "Point", "coordinates": [ 7.9094408, 45.8639164 ] } },
{ "type": "Feature", "properties": { "name": "CITTA' DI NOVARA" }, "geometry": { "type": "Point", "coordinates": [ 8.11684, 46.0852 ] } },
{ "type": "Feature", "properties": { "name": "CITTA DI SARZANA" }, "geometry": { "type": "Point", "coordinates": [ 10.1693274, 44.3387516 ] } },
{ "type": "Feature", "properties": { "name": "CITTA' DI SESTO CALENDE" }, "geometry": { "type": "Point", "coordinates": [ 8.26157, 46.32032 ] } },
{ "type": "Feature", "properties": { "name": "CITTA' DI VARESE" }, "geometry": { "type": "Point", "coordinates": [ 8.039965, 46.0838463 ] } },
{ "type": "Feature", "properties": { "name": "COAZZE/BERGERETTI MARIO" }, "geometry": { "type": "Point", "coordinates": [ 7.246174, 45.051094 ] } },
{ "type": "Feature", "properties": { "name": "COCA/MERELLI MARIO" }, "geometry": { "type": "Point", "coordinates": [ 10.0099149, 46.0547031 ] } },
{ "type": "Feature", "properties": { "name": "CODA AGOSTINO E DELFO" }, "geometry": { "type": "Point", "coordinates": [ 7.90652, 45.62242 ] } },
{ "type": "Feature", "properties": { "name": "COLLE DELLA TORRE" }, "geometry": { "type": "Point", "coordinates": [ 14.29985, 41.5304 ] } },
{ "type": "Feature", "properties": { "name": "COLOMBE'" }, "geometry": { "type": "Point", "coordinates": [ 10.383888, 46.045 ] } },
{ "type": "Feature", "properties": { "name": "COLOMBO PADRE GIANCARLO" }, "geometry": { "type": "Point", "coordinates": [ 10.6162853, 46.4297314 ] } },
{ "type": "Feature", "properties": { "name": "COMBI LUIGI E LANZA PIERO" }, "geometry": { "type": "Point", "coordinates": [ 8.220203, 46.310759 ] } },
{ "type": "Feature", "properties": { "name": "COMICI EMILIO" }, "geometry": { "type": "Point", "coordinates": [ 12.2462566, 46.5225646 ] } },
{ "type": "Feature", "properties": { "name": "COMINO GIANNI" }, "geometry": { "type": "Point", "coordinates": [ 7.043945, 45.879849 ] } },
{ "type": "Feature", "properties": { "name": "COMO" }, "geometry": { "type": "Point", "coordinates": [ 9.258529, 46.223885 ] } },
{ "type": "Feature", "properties": { "name": "CONTI ETTORE" }, "geometry": { "type": "Point", "coordinates": [ 8.342575, 46.366629 ] } },
{ "type": "Feature", "properties": { "name": "CONTI NELLO" }, "geometry": { "type": "Point", "coordinates": [ 10.23216, 44.097631 ] } },
{ "type": "Feature", "properties": { "name": "COPPO DELL'ORSO" }, "geometry": { "type": "Point", "coordinates": [ 13.65293, 41.82124 ] } },
{ "type": "Feature", "properties": { "name": "CORNO DEL RENON DI SOPRA" }, "geometry": { "type": "Point", "coordinates": [ 11.46141, 46.614712 ] } },
{ "type": "Feature", "properties": { "name": "CORNO GRANDE" }, "geometry": { "type": "Point", "coordinates": [ 9.415, 46.11 ] } },
{ "type": "Feature", "properties": { "name": "CORNON" }, "geometry": { "type": "Point", "coordinates": [ 12.588528, 46.52709 ] } },
{ "type": "Feature", "properties": { "name": "CORSI GUIDO" }, "geometry": { "type": "Point", "coordinates": [ 13.50021, 46.42201 ] } },
{ "type": "Feature", "properties": { "name": "CORTI ALFREDO" }, "geometry": { "type": "Point", "coordinates": [ 9.9875049, 46.0791461 ] } },
{ "type": "Feature", "properties": { "name": "COSI PIERO" }, "geometry": { "type": "Point", "coordinates": [ 12.26058, 46.45403 ] } },
{ "type": "Feature", "properties": { "name": "COSTA BATON" }, "geometry": { "type": "Point", "coordinates": [ 11.6126, 46.4213 ] } },
{ "type": "Feature", "properties": { "name": "COSTANTINI FRANCO" }, "geometry": { "type": "Point", "coordinates": [ 13.44321, 46.33353 ] } },
{ "type": "Feature", "properties": { "name": "COSTI MAURO/FALCHERO MARCO" }, "geometry": { "type": "Point", "coordinates": [ 7.321024, 44.208109 ] } },
{ "type": "Feature", "properties": { "name": "COZZOLINO ENZO" }, "geometry": { "type": "Point", "coordinates": [ 11.9493062, 46.2837835 ] } },
{ "type": "Feature", "properties": { "name": "CRASSO IGOR" }, "geometry": { "type": "Point", "coordinates": [ 13.36713, 46.38674 ] } },
{ "type": "Feature", "properties": { "name": "CRAVERI PIERO" }, "geometry": { "type": "Point", "coordinates": [ 6.890198, 45.818657 ] } },
{ "type": "Feature", "properties": { "name": "CRAVETTO ALDO" }, "geometry": { "type": "Point", "coordinates": [ 7.8149118, 45.7062358 ] } },
{ "type": "Feature", "properties": { "name": "CREMONA ALLA STUA" }, "geometry": { "type": "Point", "coordinates": [ 11.2842561, 46.9736568 ] } },
{ "type": "Feature", "properties": { "name": "CRESPI CALDERINI ANNA" }, "geometry": { "type": "Point", "coordinates": [ 7.909894, 45.88865 ] } },
{ "type": "Feature", "properties": { "name": "CRETE SÈCHE" }, "geometry": { "type": "Point", "coordinates": [ 7.398876, 45.882318 ] } },
{ "type": "Feature", "properties": { "name": "CRISTE'" }, "geometry": { "type": "Point", "coordinates": [ 9.0464198, 45.955533 ] } },
{ "type": "Feature", "properties": { "name": "CRODA DA LAGO/PALMIERI GIANNI" }, "geometry": { "type": "Point", "coordinates": [ 12.1056465, 46.4864333 ] } },
{ "type": "Feature", "properties": { "name": "CROSTA PIETRO" }, "geometry": { "type": "Point", "coordinates": [ 8.257125, 46.236398 ] } },
{ "type": "Feature", "properties": { "name": "CROZZON/CASTIGLIONI ETTORE" }, "geometry": { "type": "Point", "coordinates": [ 10.869474, 46.16154 ] } },
{ "type": "Feature", "properties": { "name": "CUNELLA/COVA GIAN BATTISTA" }, "geometry": { "type": "Point", "coordinates": [ 10.625, 46.07078 ] } },
{ "type": "Feature", "properties": { "name": "CURO' ANTONIO" }, "geometry": { "type": "Point", "coordinates": [ 10.04772, 46.06186 ] } },
{ "type": "Feature", "properties": { "name": "DA CUESTA" }, "geometry": { "type": "Point", "coordinates": [ 12.8813149, 46.515951 ] } },
{ "type": "Feature", "properties": { "name": "DA RIN CHIAUREI AL MONTE TUDAIO" }, "geometry": { "type": "Point", "coordinates": [ 12.496381, 46.518948 ] } },
{ "type": "Feature", "properties": { "name": "DAL BIANCO MARCO" }, "geometry": { "type": "Point", "coordinates": [ 11.8454459, 46.4291825 ] } },
{ "type": "Feature", "properties": { "name": "DAL MAS RENZO" }, "geometry": { "type": "Point", "coordinates": [ 12.175945, 46.261942 ] } },
{ "type": "Feature", "properties": { "name": "DAL PIAZ GIORGIO" }, "geometry": { "type": "Point", "coordinates": [ 11.842424, 46.089247 ] } },
{ "type": "Feature", "properties": { "name": "DALLA BERNARDINA UGO" }, "geometry": { "type": "Point", "coordinates": [ 12.179996, 46.228215 ] } },
{ "type": "Feature", "properties": { "name": "DALMAZZI CESARE AL TRIOLET" }, "geometry": { "type": "Point", "coordinates": [ 7.040587, 45.893869 ] } },
{ "type": "Feature", "properties": { "name": "DANERBA" }, "geometry": { "type": "Point", "coordinates": [ 10.5232205, 46.0136781 ] } },
{ "type": "Feature", "properties": { "name": "D'ARCANGELO NICOLA" }, "geometry": { "type": "Point", "coordinates": [ 13.5923, 42.4595 ] } },
{ "type": "Feature", "properties": { "name": "DAVANZO E. /PICCIOLA P./VIANELLO M." }, "geometry": { "type": "Point", "coordinates": [ 13.4457012, 46.378782 ] } },
{ "type": "Feature", "properties": { "name": "DAVISO PAOLO" }, "geometry": { "type": "Point", "coordinates": [ 7.18357, 45.37554 ] } },
{ "type": "Feature", "properties": { "name": "DAVITO PIER MARIO" }, "geometry": { "type": "Point", "coordinates": [ 7.442444, 45.538814 ] } },
{ "type": "Feature", "properties": { "name": "DE ALEXANDRIS LUIGI/FOCHES GIOVANNI AL LAUS" }, "geometry": { "type": "Point", "coordinates": [ 7.04648, 44.25067 ] } },
{ "type": "Feature", "properties": { "name": "DE DOSSO BRUNO" }, "geometry": { "type": "Point", "coordinates": [ 9.9408623, 46.2529987 ] } },
{ "type": "Feature", "properties": { "name": "DE GASPERI GIUSEPPE  G.BATTISTA/LUIGI" }, "geometry": { "type": "Point", "coordinates": [ 12.6758, 46.52019 ] } },
{ "type": "Feature", "properties": { "name": "DE GIORGIO HAVIS/MONDOVI'" }, "geometry": { "type": "Point", "coordinates": [ 7.731729, 44.191537 ] } },
{ "type": "Feature", "properties": { "name": "DE GRANDI ADAMOLI GIULIO" }, "geometry": { "type": "Point", "coordinates": [ 8.67230459, 45.93067423 ] } },
{ "type": "Feature", "properties": { "name": "DE LA SASSA/CERESA STEFANO E PAOLO" }, "geometry": { "type": "Point", "coordinates": [ 7.4656228, 45.9264222 ] } },
{ "type": "Feature", "properties": { "name": "DE MARCHI MARCO E ROSA DE MARCHI - AGOSTINO ROCCA AL BERNINA" }, "geometry": { "type": "Point", "coordinates": [ 9.9104704, 46.3735624 ] } },
{ "type": "Feature", "properties": { "name": "DE TONI ANTONIO E TONINO" }, "geometry": { "type": "Point", "coordinates": [ 12.361797, 46.606885 ] } },
{ "type": "Feature", "properties": { "name": "DEFFAR RICCARDO/NORDIO AURELIO E FABIO" }, "geometry": { "type": "Point", "coordinates": [ 13.4827028, 46.5587239 ] } },
{ "type": "Feature", "properties": { "name": "DEFFEYES ALBERTO" }, "geometry": { "type": "Point", "coordinates": [ 6.985931, 45.675393 ] } },
{ "type": "Feature", "properties": { "name": "DEL CINGINO" }, "geometry": { "type": "Point", "coordinates": [ 8.037742, 46.028306 ] } },
{ "type": "Feature", "properties": { "name": "DEL FREO GIUSEPPE" }, "geometry": { "type": "Point", "coordinates": [ 10.30541, 44.032645 ] } },
{ "type": "Feature", "properties": { "name": "DEL GOBBO DAMIANA" }, "geometry": { "type": "Point", "coordinates": [ 12.6720983, 46.5337498 ] } },
{ "type": "Feature", "properties": { "name": "DEL GRANDE MARIO/CAMERINI REMO" }, "geometry": { "type": "Point", "coordinates": [ 9.742038, 46.308597 ] } },
{ "type": "Feature", "properties": { "name": "DEL MONTANARO" }, "geometry": { "type": "Point", "coordinates": [ 10.849, 44.085 ] } },
{ "type": "Feature", "properties": { "name": "DEL PIERO GIAMPAOLO" }, "geometry": { "type": "Point", "coordinates": [ 10.511852, 46.4483044 ] } },
{ "type": "Feature", "properties": { "name": "DEL SERVIZIO" }, "geometry": { "type": "Point", "coordinates": [ 9.3024264, 46.38675 ] } },
{ "type": "Feature", "properties": { "name": "DEL TORSO SANDRO" }, "geometry": { "type": "Point", "coordinates": [ 13.39693, 46.42301 ] } },
{ "type": "Feature", "properties": { "name": "DELFICO ORAZIO" }, "geometry": { "type": "Point", "coordinates": [ 13.35, 42.3 ] } },
{ "type": "Feature", "properties": { "name": "DESIO" }, "geometry": { "type": "Point", "coordinates": [ 9.7768941, 46.2372697 ] } },
{ "type": "Feature", "properties": { "name": "DETASSIS CATULLO" }, "geometry": { "type": "Point", "coordinates": [ 10.877605, 46.1752134 ] } },
{ "type": "Feature", "properties": { "name": "DEVOTO ANTONIO" }, "geometry": { "type": "Point", "coordinates": [ 9.443155, 44.415231 ] } },
{ "type": "Feature", "properties": { "name": "DI BRAZZA' GIACOMO" }, "geometry": { "type": "Point", "coordinates": [ 13.4466, 46.41442 ] } },
{ "type": "Feature", "properties": { "name": "DIANA E TAMARA" }, "geometry": { "type": "Point", "coordinates": [ 14.0752, 42.0494 ] } },
{ "type": "Feature", "properties": { "name": "DIVISIONE JULIA" }, "geometry": { "type": "Point", "coordinates": [ 13.4732158, 46.3898911 ] } },
{ "type": "Feature", "properties": { "name": "DON RAVELLI LUIGI" }, "geometry": { "type": "Point", "coordinates": [ 7.880473, 45.837259 ] } },
{ "type": "Feature", "properties": { "name": "DON ZIO PISONI AL MONTE CASALE" }, "geometry": { "type": "Point", "coordinates": [ 10.92456, 46.03004 ] } },
{ "type": "Feature", "properties": { "name": "DONATI OTTORINO" }, "geometry": { "type": "Point", "coordinates": [ 9.967175, 46.0957518 ] } },
{ "type": "Feature", "properties": { "name": "DOSDE'" }, "geometry": { "type": "Point", "coordinates": [ 10.1812, 46.383 ] } },
{ "type": "Feature", "properties": { "name": "DUCA DEGLI ABRUZZI" }, "geometry": { "type": "Point", "coordinates": [ 10.809259, 44.119061 ] } },
{ "type": "Feature", "properties": { "name": "DUCA DEGLI ABRUZZI" }, "geometry": { "type": "Point", "coordinates": [ 13.552037, 42.448121 ] } },
{ "type": "Feature", "properties": { "name": "ELIO PISCHIUTTI" }, "geometry": { "type": "Point", "coordinates": [ 13.18201, 46.27837 ] } },
{ "type": "Feature", "properties": { "name": "ELISA" }, "geometry": { "type": "Point", "coordinates": [ 9.38147, 45.938472 ] } },
{ "type": "Feature", "properties": { "name": "ELLENA GIANNI/SORIA EDOARDO" }, "geometry": { "type": "Point", "coordinates": [ 7.363974, 44.139928 ] } },
{ "type": "Feature", "properties": { "name": "ESPERIA" }, "geometry": { "type": "Point", "coordinates": [ 10.7210461, 44.2175518 ] } },
{ "type": "Feature", "properties": { "name": "F. TROPEA" }, "geometry": { "type": "Point", "coordinates": [ 14.058393, 37.851148 ] } },
{ "type": "Feature", "properties": { "name": "FAIANI ENRICO" }, "geometry": { "type": "Point", "coordinates": [ 13.743936, 42.449966 ] } },
{ "type": "Feature", "properties": { "name": "FALCHI/VILLATA CARLO" }, "geometry": { "type": "Point", "coordinates": [ 7.093188, 44.676068 ] } },
{ "type": "Feature", "properties": { "name": "FALCK ENRICO" }, "geometry": { "type": "Point", "coordinates": [ 10.25404, 46.38803 ] } },
{ "type": "Feature", "properties": { "name": "FALIER ONORIO ALL'OMBRETTA" }, "geometry": { "type": "Point", "coordinates": [ 11.862701, 46.424851 ] } },
{ "type": "Feature", "properties": { "name": "FANTOLI ANTONIO" }, "geometry": { "type": "Point", "coordinates": [ 8.4620223, 45.985218 ] } },
{ "type": "Feature", "properties": { "name": "FANTON FRATELLI" }, "geometry": { "type": "Point", "coordinates": [ 12.342501, 46.504572 ] } },
{ "type": "Feature", "properties": { "name": "FARELLO BENIAMINO" }, "geometry": { "type": "Point", "coordinates": [ 8.17982, 46.290592 ] } },
{ "type": "Feature", "properties": { "name": "FEDERICI FEDERICO/MARCHESINI ETTORE AL PAGARI'" }, "geometry": { "type": "Point", "coordinates": [ 7.40643, 44.123912 ] } },
{ "type": "Feature", "properties": { "name": "FEDERIGO - ZULLO" }, "geometry": { "type": "Point", "coordinates": [ 7.367882, 45.682586 ] } },
{ "type": "Feature", "properties": { "name": "FELTRE" }, "geometry": { "type": "Point", "coordinates": [ 11.93951, 46.16824 ] } },
{ "type": "Feature", "properties": { "name": "FEMMINA MORTA" }, "geometry": { "type": "Point", "coordinates": [ 13.3734332, 41.8684271 ] } },
{ "type": "Feature", "properties": { "name": "FERIOLI SANTINO" }, "geometry": { "type": "Point", "coordinates": [ 7.9587723, 45.8775955 ] } },
{ "type": "Feature", "properties": { "name": "FERRARIO BRUNO" }, "geometry": { "type": "Point", "coordinates": [ 9.3906992, 45.9219034 ] } },
{ "type": "Feature", "properties": { "name": "FERRARIO PAOLO" }, "geometry": { "type": "Point", "coordinates": [ 10.27622, 46.42962 ] } },
{ "type": "Feature", "properties": { "name": "FERRERI EUGENIO/RIVERO MICHELE" }, "geometry": { "type": "Point", "coordinates": [ 7.18444, 45.368219 ] } },
{ "type": "Feature", "properties": { "name": "FERUGLIO DIONISIO" }, "geometry": { "type": "Point", "coordinates": [ 13.16675, 46.46634 ] } },
{ "type": "Feature", "properties": { "name": "FESTA VALERIO" }, "geometry": { "type": "Point", "coordinates": [ 10.41518, 46.17961 ] } },
{ "type": "Feature", "properties": { "name": "FIAMME GIALLE" }, "geometry": { "type": "Point", "coordinates": [ 11.82727, 46.28391 ] } },
{ "type": "Feature", "properties": { "name": "FIGARI BARTOLOMEO/GENOVA" }, "geometry": { "type": "Point", "coordinates": [ 7.334263, 44.161155 ] } },
{ "type": "Feature", "properties": { "name": "FINONCHIO / FILZI FABIO E FAUSTO" }, "geometry": { "type": "Point", "coordinates": [ 11.114789, 45.900437 ] } },
{ "type": "Feature", "properties": { "name": "FIORIO CESARE (NUOVO)" }, "geometry": { "type": "Point", "coordinates": [ 7.0599862, 45.9016312 ] } },
{ "type": "Feature", "properties": { "name": "FIORIO CESARE (VECCHIO)" }, "geometry": { "type": "Point", "coordinates": [ 7.059465, 45.9014399 ] } },
{ "type": "Feature", "properties": { "name": "FLAIBAN NINO/PACHERINI FABIO" }, "geometry": { "type": "Point", "coordinates": [ 12.56097, 46.38231 ] } },
{ "type": "Feature", "properties": { "name": "F.LLI CIOCI" }, "geometry": { "type": "Point", "coordinates": [ 13.217684, 43.015754 ] } },
{ "type": "Feature", "properties": { "name": "F.LLI DINO E PLINIO TOSO" }, "geometry": { "type": "Point", "coordinates": [ 12.314299, 46.514717 ] } },
{ "type": "Feature", "properties": { "name": "FONDA SAVIO PIERO PAOLO SERGIO" }, "geometry": { "type": "Point", "coordinates": [ 12.2874, 46.58528 ] } },
{ "type": "Feature", "properties": { "name": "FONDOMONFRACCHIO" }, "geometry": { "type": "Point", "coordinates": [ 8.515823, 46.199868 ] } },
{ "type": "Feature", "properties": { "name": "FONTE VETICA" }, "geometry": { "type": "Point", "coordinates": [ 13.74057, 42.42385 ] } },
{ "type": "Feature", "properties": { "name": "FORCELLA GRANDE/RIGATTI MARIO" }, "geometry": { "type": "Point", "coordinates": [ 11.580636, 46.38157 ] } },
{ "type": "Feature", "properties": { "name": "FORTE DEI MARMI" }, "geometry": { "type": "Point", "coordinates": [ 10.335787, 43.992995 ] } },
{ "type": "Feature", "properties": { "name": "FRACCAROLI MARIO" }, "geometry": { "type": "Point", "coordinates": [ 11.129004, 45.723624 ] } },
{ "type": "Feature", "properties": { "name": "FRANCESCO CALZOLARI E GIOVANNI PONA AL TELEGRAFO" }, "geometry": { "type": "Point", "coordinates": [ 10.830378, 45.704873 ] } },
{ "type": "Feature", "properties": { "name": "FRANCESCUTTO" }, "geometry": { "type": "Point", "coordinates": [ 12.6155, 46.4373 ] } },
{ "type": "Feature", "properties": { "name": "FRANCHETTI CARLO" }, "geometry": { "type": "Point", "coordinates": [ 13.565406, 42.477101 ] } },
{ "type": "Feature", "properties": { "name": "FRANCO ELLENA" }, "geometry": { "type": "Point", "coordinates": [ 7.038333, 44.523412 ] } },
{ "type": "Feature", "properties": { "name": "FRANCO/LORENZO/GIORGIO AL BAUS" }, "geometry": { "type": "Point", "coordinates": [ 7.314093, 44.171591 ] } },
{ "type": "Feature", "properties": { "name": "FRATTINI ALDO" }, "geometry": { "type": "Point", "coordinates": [ 9.92092, 46.04102 ] } },
{ "type": "Feature", "properties": { "name": "FRESCURA LEO-ROCCHI ALFONSO" }, "geometry": { "type": "Point", "coordinates": [ 12.3475205, 46.4828125 ] } },
{ "type": "Feature", "properties": { "name": "FUGERA" }, "geometry": { "type": "Point", "coordinates": [ 7.123506, 45.162689 ] } },
{ "type": "Feature", "properties": { "name": "FUSCO CARLO" }, "geometry": { "type": "Point", "coordinates": [ 14.1213516, 42.1151855 ] } },
{ "type": "Feature", "properties": { "name": "GAGLIARDONE GIUSEPPE" }, "geometry": { "type": "Point", "coordinates": [ 7.0670118, 44.6700984 ] } },
{ "type": "Feature", "properties": { "name": "GAMBINO PATRIK" }, "geometry": { "type": "Point", "coordinates": [ 7.5022825, 43.8476203 ] } },
{ "type": "Feature", "properties": { "name": "GANDOLFO GINO/GIULIANO FRANCO" }, "geometry": { "type": "Point", "coordinates": [ 7.2284864, 45.2691637 ] } },
{ "type": "Feature", "properties": { "name": "GANDOLFO NICOLINO" }, "geometry": { "type": "Point", "coordinates": [ 7.30216, 44.21391 ] } },
{ "type": "Feature", "properties": { "name": "GARDETTA" }, "geometry": { "type": "Point", "coordinates": [ 7.01217, 44.40923 ] } },
{ "type": "Feature", "properties": { "name": "GARELLI PIERO" }, "geometry": { "type": "Point", "coordinates": [ 7.687687, 44.188726 ] } },
{ "type": "Feature", "properties": { "name": "GARIBALDI GIUSEPPE" }, "geometry": { "type": "Point", "coordinates": [ 10.494953, 46.179482 ] } },
{ "type": "Feature", "properties": { "name": "GARNERONE" }, "geometry": { "type": "Point", "coordinates": [ 10.181219, 44.121014 ] } },
{ "type": "Feature", "properties": { "name": "GARZONEDO" }, "geometry": { "type": "Point", "coordinates": [ 9.4716384, 46.2921631 ] } },
{ "type": "Feature", "properties": { "name": "GASTALDI BARTOLOMEO (NUOVO E VECCHIO)" }, "geometry": { "type": "Point", "coordinates": [ 7.143297, 45.297834 ] } },
{ "type": "Feature", "properties": { "name": "GASTALDI CARLO" }, "geometry": { "type": "Point", "coordinates": [ 7.8522164, 45.8267044 ] } },
{ "type": "Feature", "properties": { "name": "GEAT VAL GRAVIO" }, "geometry": { "type": "Point", "coordinates": [ 7.171851, 45.085512 ] } },
{ "type": "Feature", "properties": { "name": "GERA CARLO" }, "geometry": { "type": "Point", "coordinates": [ 12.428374, 46.601596 ] } },
{ "type": "Feature", "properties": { "name": "GERVASUTTI GIUSTO" }, "geometry": { "type": "Point", "coordinates": [ 7.013103, 45.875916 ] } },
{ "type": "Feature", "properties": { "name": "GERVASUTTI GIUSTO" }, "geometry": { "type": "Point", "coordinates": [ 12.44765, 46.38161 ] } },
{ "type": "Feature", "properties": { "name": "GHEDINI GIUSEPPE" }, "geometry": { "type": "Point", "coordinates": [ 12.054361, 46.33853 ] } },
{ "type": "Feature", "properties": { "name": "GHERARDI ANGELO" }, "geometry": { "type": "Point", "coordinates": [ 9.56484, 45.92575 ] } },
{ "type": "Feature", "properties": { "name": "GHEZA MAFFEO" }, "geometry": { "type": "Point", "coordinates": [ 10.416285, 45.962884 ] } },
{ "type": "Feature", "properties": { "name": "GHISLANDI GIACOMO" }, "geometry": { "type": "Point", "coordinates": [ 9.460555, 45.850277 ] } },
{ "type": "Feature", "properties": { "name": "GIACOLETTI VITALE" }, "geometry": { "type": "Point", "coordinates": [ 7.075946, 44.696679 ] } },
{ "type": "Feature", "properties": { "name": "GIAF" }, "geometry": { "type": "Point", "coordinates": [ 12.5196453, 46.4236276 ] } },
{ "type": "Feature", "properties": { "name": "GIANETTI LUIGI-PIACCO ATTILIO" }, "geometry": { "type": "Point", "coordinates": [ 9.5841133, 46.2805112 ] } },
{ "type": "Feature", "properties": { "name": "GIANNANTONJ ARRIGO" }, "geometry": { "type": "Point", "coordinates": [ 10.51966, 46.139098 ] } },
{ "type": "Feature", "properties": { "name": "GIGI CASENTINI" }, "geometry": { "type": "Point", "coordinates": [ 10.61311, 44.11329 ] } },
{ "type": "Feature", "properties": { "name": "GILBERTI CELSO" }, "geometry": { "type": "Point", "coordinates": [ 13.46125, 46.37166 ] } },
{ "type": "Feature", "properties": { "name": "GIORDANO FELICE" }, "geometry": { "type": "Point", "coordinates": [ 7.858085, 45.91364 ] } },
{ "type": "Feature", "properties": { "name": "GIRAUDO ETTORE E MARGHERITA" }, "geometry": { "type": "Point", "coordinates": [ 7.267456, 45.447607 ] } },
{ "type": "Feature", "properties": { "name": "GIULIANI REGINALDO AL SASSOLUNGO" }, "geometry": { "type": "Point", "coordinates": [ 11.735816, 46.524045 ] } },
{ "type": "Feature", "properties": { "name": "GIULIO TIFONI" }, "geometry": { "type": "Point", "coordinates": [ 9.9795372, 44.4078433 ] } },
{ "type": "Feature", "properties": { "name": "GIURIANI CHIARA/BORZI WALTER" }, "geometry": { "type": "Point", "coordinates": [ 9.43242, 46.36889 ] } },
{ "type": "Feature", "properties": { "name": "GIUSEPPE E BRUNO" }, "geometry": { "type": "Point", "coordinates": [ 9.0634774, 45.942133 ] } },
{ "type": "Feature", "properties": { "name": "GIUSEPPE GARIBALDI" }, "geometry": { "type": "Point", "coordinates": [ 13.55037, 42.46074 ] } },
{ "type": "Feature", "properties": { "name": "GIUSSANI CAMILLO" }, "geometry": { "type": "Point", "coordinates": [ 12.0608513, 46.5445792 ] } },
{ "type": "Feature", "properties": { "name": "GNIFETTI GIOVANNI" }, "geometry": { "type": "Point", "coordinates": [ 7.849818, 45.899672 ] } },
{ "type": "Feature", "properties": { "name": "GNUTTI SERAFINO" }, "geometry": { "type": "Point", "coordinates": [ 10.453883, 46.131317 ] } },
{ "type": "Feature", "properties": { "name": "GOITAN ANITA E PAOLO" }, "geometry": { "type": "Point", "coordinates": [ 12.58728, 46.32166 ] } },
{ "type": "Feature", "properties": { "name": "GONELLA FRANCESCO (NUOVO E VECCHIO)" }, "geometry": { "type": "Point", "coordinates": [ 6.832202, 45.819279 ] } },
{ "type": "Feature", "properties": { "name": "GRAFFER GIORGIO AL GROSTE'" }, "geometry": { "type": "Point", "coordinates": [ 10.889425, 46.219649 ] } },
{ "type": "Feature", "properties": { "name": "GRAI/ LEPANTO SILVIO" }, "geometry": { "type": "Point", "coordinates": [ 7.6735138, 43.996624 ] } },
{ "type": "Feature", "properties": { "name": "GRANDINETTI LEONE" }, "geometry": { "type": "Point", "coordinates": [ 16.63277, 39.123555 ] } },
{ "type": "Feature", "properties": { "name": "GRANDORI NANDO/ODELLO CARLA" }, "geometry": { "type": "Point", "coordinates": [ 9.7319332, 46.2770588 ] } },
{ "type": "Feature", "properties": { "name": "GRANZOTTO RENZO/MARCHI ANTONIO" }, "geometry": { "type": "Point", "coordinates": [ 12.50377, 46.41272 ] } },
{ "type": "Feature", "properties": { "name": "GRAUZARIA" }, "geometry": { "type": "Point", "coordinates": [ 13.1600823, 46.4767791 ] } },
{ "type": "Feature", "properties": { "name": "GRAZZINI GIOVANNI" }, "geometry": { "type": "Point", "coordinates": [ 10.348795, 45.8496909 ] } },
{ "type": "Feature", "properties": { "name": "GREGO ATTILIO/REMIGIO/FERRUCCIO" }, "geometry": { "type": "Point", "coordinates": [ 13.4552, 46.4575 ] } },
{ "type": "Feature", "properties": { "name": "GRESELIN PAOLO" }, "geometry": { "type": "Point", "coordinates": [ 12.41692, 46.33366 ] } },
{ "type": "Feature", "properties": { "name": "GRIES" }, "geometry": { "type": "Point", "coordinates": [ 8.22, 46.27 ] } },
{ "type": "Feature", "properties": { "name": "GRISETTI GIOVANNINO" }, "geometry": { "type": "Point", "coordinates": [ 12.076135, 46.34797 ] } },
{ "type": "Feature", "properties": { "name": "GRUPPO CAMOSCI" }, "geometry": { "type": "Point", "coordinates": [ 8.26151, 45.864812 ] } },
{ "type": "Feature", "properties": { "name": "GUGIATTI ERMANNO/SERTORELLI OSCAR" }, "geometry": { "type": "Point", "coordinates": [ 9.9206543, 46.2134883 ] } },
{ "type": "Feature", "properties": { "name": "GUGLIERMINA FRATELLI  (EX  VALSESIA)" }, "geometry": { "type": "Point", "coordinates": [ 7.8830236, 45.9124463 ] } },
{ "type": "Feature", "properties": { "name": "GUIGLIA JACQUES" }, "geometry": { "type": "Point", "coordinates": [ 7.252654, 44.168632 ] } },
{ "type": "Feature", "properties": { "name": "HESS ADOLFO" }, "geometry": { "type": "Point", "coordinates": [ 6.8201732, 45.7742421 ] } },
{ "type": "Feature", "properties": { "name": "IACCIO GRANDE" }, "geometry": { "type": "Point", "coordinates": [ 13.9376, 42.13433 ] } },
{ "type": "Feature", "properties": { "name": "IL BIONDO" }, "geometry": { "type": "Point", "coordinates": [ 9.4413325, 46.2915466 ] } },
{ "type": "Feature", "properties": { "name": "INFERNOTTO" }, "geometry": { "type": "Point", "coordinates": [ 7.2395644, 44.7267881 ] } },
{ "type": "Feature", "properties": { "name": "IVREA" }, "geometry": { "type": "Point", "coordinates": [ 7.308436, 45.5006061 ] } },
{ "type": "Feature", "properties": { "name": "JERVIS GUGLIELMO" }, "geometry": { "type": "Point", "coordinates": [ 7.19039, 45.43357 ] } },
{ "type": "Feature", "properties": { "name": "JERVIS WILLY" }, "geometry": { "type": "Point", "coordinates": [ 7.03949, 44.773701 ] } },
{ "type": "Feature", "properties": { "name": "JUFFMANN GIORGIO" }, "geometry": { "type": "Point", "coordinates": [ 10.9527, 46.32208 ] } },
{ "type": "Feature", "properties": { "name": "JURUMITO" }, "geometry": { "type": "Point", "coordinates": [ 14.999771, 40.788539 ] } },
{ "type": "Feature", "properties": { "name": "K2" }, "geometry": { "type": "Point", "coordinates": [ 10.20328, 44.121 ] } },
{ "type": "Feature", "properties": { "name": "KOSTNER FRANZ AL VALLON" }, "geometry": { "type": "Point", "coordinates": [ 11.84849, 46.51861 ] } },
{ "type": "Feature", "properties": { "name": "LA CALLA" }, "geometry": { "type": "Point", "coordinates": [ 11.743506, 43.860018 ] } },
{ "type": "Feature", "properties": { "name": "LA LORENZA" }, "geometry": { "type": "Point", "coordinates": [ 11.00383, 44.01103 ] } },
{ "type": "Feature", "properties": { "name": "LA SPELLA" }, "geometry": { "type": "Point", "coordinates": [ 12.7014772, 43.0317743 ] } },
{ "type": "Feature", "properties": { "name": "LAENG GUALTIERO" }, "geometry": { "type": "Point", "coordinates": [ 10.19366, 45.981 ] } },
{ "type": "Feature", "properties": { "name": "LAENG GUALTIERO" }, "geometry": { "type": "Point", "coordinates": [ 10.587532, 46.139499 ] } },
{ "type": "Feature", "properties": { "name": "LAGHI GEMELLI" }, "geometry": { "type": "Point", "coordinates": [ 9.80363, 45.99305 ] } },
{ "type": "Feature", "properties": { "name": "LAGO NERO" }, "geometry": { "type": "Point", "coordinates": [ 9.8773919, 45.9972045 ] } },
{ "type": "Feature", "properties": { "name": "LAGO NERO" }, "geometry": { "type": "Point", "coordinates": [ 10.636632, 44.1147933 ] } },
{ "type": "Feature", "properties": { "name": "LAMA BIANCA/DI DONATO FILIPPO" }, "geometry": { "type": "Point", "coordinates": [ 14.045334, 42.096611 ] } },
{ "type": "Feature", "properties": { "name": "LAMPUGNANI GIUSEPPE" }, "geometry": { "type": "Point", "coordinates": [ 6.8732719, 45.819924 ] } },
{ "type": "Feature", "properties": { "name": "LANCIA VINCENZO ALL'ALPE POZZA" }, "geometry": { "type": "Point", "coordinates": [ 11.144715, 45.827297 ] } },
{ "type": "Feature", "properties": { "name": "LANTI EMILIANO" }, "geometry": { "type": "Point", "coordinates": [ 7.963487, 45.911986 ] } },
{ "type": "Feature", "properties": { "name": "LATELTIN ULRICH" }, "geometry": { "type": "Point", "coordinates": [ 7.790974, 45.822876 ] } },
{ "type": "Feature", "properties": { "name": "LATEMAR/SIEFF ATTILIO" }, "geometry": { "type": "Point", "coordinates": [ 11.570694, 46.374572 ] } },
{ "type": "Feature", "properties": { "name": "LE FORME" }, "geometry": { "type": "Point", "coordinates": [ 13.9723068, 41.6919643 ] } },
{ "type": "Feature", "properties": { "name": "LE PAGLIARE" }, "geometry": { "type": "Point", "coordinates": [ 13.80805, 42.35817 ] } },
{ "type": "Feature", "properties": { "name": "LECCO" }, "geometry": { "type": "Point", "coordinates": [ 9.502475, 45.955996 ] } },
{ "type": "Feature", "properties": { "name": "LEONESI RAFFAELE VITTORIO" }, "geometry": { "type": "Point", "coordinates": [ 7.191953, 45.409479 ] } },
{ "type": "Feature", "properties": { "name": "LEONESSA LIONELLO E LUCIO" }, "geometry": { "type": "Point", "coordinates": [ 7.297734, 45.546313 ] } },
{ "type": "Feature", "properties": { "name": "LEONI GIOVANNI" }, "geometry": { "type": "Point", "coordinates": [ 8.251284, 46.257718 ] } },
{ "type": "Feature", "properties": { "name": "LEVI MARIANNINA/MOLINARI MAGDA" }, "geometry": { "type": "Point", "coordinates": [ 6.89546, 45.114906 ] } },
{ "type": "Feature", "properties": { "name": "LINGE" }, "geometry": { "type": "Point", "coordinates": [ 10.460015, 46.3279146 ] } },
{ "type": "Feature", "properties": { "name": "LOCATELLI ANTONIO - INNERKOFLER SEPP" }, "geometry": { "type": "Point", "coordinates": [ 12.31049, 46.636916 ] } },
{ "type": "Feature", "properties": { "name": "LOCATELLI MILANI SCAIOLI" }, "geometry": { "type": "Point", "coordinates": [ 9.4488726, 45.8983402 ] } },
{ "type": "Feature", "properties": { "name": "LOMASTI ERNESTO" }, "geometry": { "type": "Point", "coordinates": [ 13.230045, 46.5585561 ] } },
{ "type": "Feature", "properties": { "name": "LOMINI MARIA E FRANCO" }, "geometry": { "type": "Point", "coordinates": [ 10.4651125, 46.0238579 ] } },
{ "type": "Feature", "properties": { "name": "LONGA BARTOLOMEO" }, "geometry": { "type": "Point", "coordinates": [ 8.062026, 45.988425 ] } },
{ "type": "Feature", "properties": { "name": "LONGO BIAGIO" }, "geometry": { "type": "Point", "coordinates": [ 16.0839383, 39.7742444 ] } },
{ "type": "Feature", "properties": { "name": "LONGO FRATELLI" }, "geometry": { "type": "Point", "coordinates": [ 9.86185, 46.03996 ] } },
{ "type": "Feature", "properties": { "name": "LONGONI ANTONIO ED ELIA" }, "geometry": { "type": "Point", "coordinates": [ 9.81954, 46.33028 ] } },
{ "type": "Feature", "properties": { "name": "LOWRIE BARBARA" }, "geometry": { "type": "Point", "coordinates": [ 7.08152, 44.749191 ] } },
{ "type": "Feature", "properties": { "name": "MACCHIA TARANTA" }, "geometry": { "type": "Point", "coordinates": [ 14.142277, 42.033645 ] } },
{ "type": "Feature", "properties": { "name": "MADERLINA" }, "geometry": { "type": "Point", "coordinates": [ 11.1869, 46.1905723 ] } },
{ "type": "Feature", "properties": { "name": "MADONNA DEL CORNO" }, "geometry": { "type": "Point", "coordinates": [ 10.0459024, 45.640145 ] } },
{ "type": "Feature", "properties": { "name": "MAGNOLINI LEONIDA" }, "geometry": { "type": "Point", "coordinates": [ 10.081996, 45.871331 ] } },
{ "type": "Feature", "properties": { "name": "MAIOLICA" }, "geometry": { "type": "Point", "coordinates": [ 12.53, 42.34 ] } },
{ "type": "Feature", "properties": { "name": "MALGA BOCCIA" }, "geometry": { "type": "Point", "coordinates": [ 11.627083, 46.5479 ] } },
{ "type": "Feature", "properties": { "name": "MALGA CJAMPIS" }, "geometry": { "type": "Point", "coordinates": [ 12.73127, 46.32683 ] } },
{ "type": "Feature", "properties": { "name": "MALGA CROCE" }, "geometry": { "type": "Point", "coordinates": [ 10.19, 45.4647 ] } },
{ "type": "Feature", "properties": { "name": "MALGA DOSSON" }, "geometry": { "type": "Point", "coordinates": [ 11.01597, 46.1535 ] } },
{ "type": "Feature", "properties": { "name": "MALGA ERVINA" }, "geometry": { "type": "Point", "coordinates": [ 10.50659, 46.05662 ] } },
{ "type": "Feature", "properties": { "name": "MALGA PAVARI'" }, "geometry": { "type": "Point", "coordinates": [ 10.627, 45.754 ] } },
{ "type": "Feature", "properties": { "name": "MALGONERA" }, "geometry": { "type": "Point", "coordinates": [ 11.927247, 46.314413 ] } },
{ "type": "Feature", "properties": { "name": "MALINVERN / CITTA DI CEVA" }, "geometry": { "type": "Point", "coordinates": [ 7.184639, 44.220236 ] } },
{ "type": "Feature", "properties": { "name": "MALVEZZI LAURA/ANTOLDI GUIDO" }, "geometry": { "type": "Point", "coordinates": [ 7.3765083, 45.5296346 ] } },
{ "type": "Feature", "properties": { "name": "MAMBRETTI LUIGI" }, "geometry": { "type": "Point", "coordinates": [ 9.9527872, 46.0799807 ] } },
{ "type": "Feature", "properties": { "name": "MANDRON/CITTA' DI TRENTO" }, "geometry": { "type": "Point", "coordinates": [ 10.571174, 46.20254 ] } },
{ "type": "Feature", "properties": { "name": "MANENTI DUCCIO" }, "geometry": { "type": "Point", "coordinates": [ 7.568953, 45.900137 ] } },
{ "type": "Feature", "properties": { "name": "MANIAGO" }, "geometry": { "type": "Point", "coordinates": [ 12.39269, 46.32143 ] } },
{ "type": "Feature", "properties": { "name": "MANOLINO ANGELO" }, "geometry": { "type": "Point", "coordinates": [ 7.899525, 44.197875 ] } },
{ "type": "Feature", "properties": { "name": "MANTOVA AL VIOZ" }, "geometry": { "type": "Point", "coordinates": [ 10.635773, 46.399187 ] } },
{ "type": "Feature", "properties": { "name": "MANZI ANTONIO/PIROTTA GIANNI" }, "geometry": { "type": "Point", "coordinates": [ 9.6933262, 46.2825375 ] } },
{ "type": "Feature", "properties": { "name": "MARGAROLI EUGENIO" }, "geometry": { "type": "Point", "coordinates": [ 8.365154, 46.385238 ] } },
{ "type": "Feature", "properties": { "name": "MARIA E ALBERTO FOSSATI BELLANI AI BRENTEI" }, "geometry": { "type": "Point", "coordinates": [ 10.875966, 46.1752134 ] } },
{ "type": "Feature", "properties": { "name": "MARIA LUISA" }, "geometry": { "type": "Point", "coordinates": [ 8.4277737, 46.4346321 ] } },
{ "type": "Feature", "properties": { "name": "MARIGONDA EMILIO" }, "geometry": { "type": "Point", "coordinates": [ 8.15642, 46.12376 ] } },
{ "type": "Feature", "properties": { "name": "MARINELLI DAMIANO" }, "geometry": { "type": "Point", "coordinates": [ 7.88964, 45.9445 ] } },
{ "type": "Feature", "properties": { "name": "MARINELLI DAMIANO/BOMBARDIERI LUIGI" }, "geometry": { "type": "Point", "coordinates": [ 9.905323, 46.34465 ] } },
{ "type": "Feature", "properties": { "name": "MARINELLI DINO" }, "geometry": { "type": "Point", "coordinates": [ 10.862749, 46.35644 ] } },
{ "type": "Feature", "properties": { "name": "MARINELLI GIOVANNI E OLINTO" }, "geometry": { "type": "Point", "coordinates": [ 12.8968985, 46.5933876 ] } },
{ "type": "Feature", "properties": { "name": "MARINI GIULIANO" }, "geometry": { "type": "Point", "coordinates": [ 14.024615, 37.876063 ] } },
{ "type": "Feature", "properties": { "name": "MARIOTTI GIOVANNI" }, "geometry": { "type": "Point", "coordinates": [ 10.00538, 44.40394 ] } },
{ "type": "Feature", "properties": { "name": "MARTA FRANCO" }, "geometry": { "type": "Point", "coordinates": [ 12.6191179, 46.534173 ] } },
{ "type": "Feature", "properties": { "name": "MARTINOTTI ALESSANDRO" }, "geometry": { "type": "Point", "coordinates": [ 7.3190998, 45.5313495 ] } },
{ "type": "Feature", "properties": { "name": "MATALE" }, "geometry": { "type": "Point", "coordinates": [ 10.0176, 44.37335 ] } },
{ "type": "Feature", "properties": { "name": "MATTEI ENRICO" }, "geometry": { "type": "Point", "coordinates": [ 9.9605223, 44.3943944 ] } },
{ "type": "Feature", "properties": { "name": "MAZZENI DARIO" }, "geometry": { "type": "Point", "coordinates": [ 13.47106, 46.42653 ] } },
{ "type": "Feature", "properties": { "name": "MEDICI CARLO" }, "geometry": { "type": "Point", "coordinates": [ 10.07664, 45.94219 ] } },
{ "type": "Feature", "properties": { "name": "MELANO GIUSEPPE" }, "geometry": { "type": "Point", "coordinates": [ 7.301075, 44.966616 ] } },
{ "type": "Feature", "properties": { "name": "MELIGNETTA" }, "geometry": { "type": "Point", "coordinates": [ 11.2120569, 45.8773236 ] } },
{ "type": "Feature", "properties": { "name": "MELLINI ONORIO" }, "geometry": { "type": "Point", "coordinates": [ 11.84973, 43.80933 ] } },
{ "type": "Feature", "properties": { "name": "MENAGGIO" }, "geometry": { "type": "Point", "coordinates": [ 9.21859, 46.06029 ] } },
{ "type": "Feature", "properties": { "name": "MENEGHELLO FRANCESCO" }, "geometry": { "type": "Point", "coordinates": [ 10.58798, 46.37755 ] } },
{ "type": "Feature", "properties": { "name": "MERIGGETTO" }, "geometry": { "type": "Point", "coordinates": [ 8.84895, 46.07333 ] } },
{ "type": "Feature", "properties": { "name": "MEZZALAMA OTTORINO" }, "geometry": { "type": "Point", "coordinates": [ 7.759418, 45.913715 ] } },
{ "type": "Feature", "properties": { "name": "MEZZOL" }, "geometry": { "type": "Point", "coordinates": [ 10.93797, 46.33033 ] } },
{ "type": "Feature", "properties": { "name": "MIGLIORERO GUGLIELMO" }, "geometry": { "type": "Point", "coordinates": [ 7.019236, 44.2827583 ] } },
{ "type": "Feature", "properties": { "name": "MILAN GIANCARLO" }, "geometry": { "type": "Point", "coordinates": [ 12.53169, 46.38892 ] } },
{ "type": "Feature", "properties": { "name": "MINAZIO CARLO" }, "geometry": { "type": "Point", "coordinates": [ 11.878177, 46.243621 ] } },
{ "type": "Feature", "properties": { "name": "MODONUTTI STEFANO/SAVOIA LUIGI" }, "geometry": { "type": "Point", "coordinates": [ 13.5154245, 46.3846438 ] } },
{ "type": "Feature", "properties": { "name": "MOLINO BRUNO" }, "geometry": { "type": "Point", "coordinates": [ 7.23194, 45.32652 ] } },
{ "type": "Feature", "properties": { "name": "MOLTENI MARIO/VALSECCHI GIUSEPPE" }, "geometry": { "type": "Point", "coordinates": [ 9.6253087, 46.2755039 ] } },
{ "type": "Feature", "properties": { "name": "MONEY" }, "geometry": { "type": "Point", "coordinates": [ 7.3416392, 45.5414304 ] } },
{ "type": "Feature", "properties": { "name": "MONGIOIE" }, "geometry": { "type": "Point", "coordinates": [ 7.77549, 44.15209 ] } },
{ "type": "Feature", "properties": { "name": "MONTAGNA GRANDE" }, "geometry": { "type": "Point", "coordinates": [ 13.82, 41.913 ] } },
{ "type": "Feature", "properties": { "name": "MONTANEL" }, "geometry": { "type": "Point", "coordinates": [ 12.454396, 46.433721 ] } },
{ "type": "Feature", "properties": { "name": "MONTE AIONA" }, "geometry": { "type": "Point", "coordinates": [ 9.459141, 44.472962 ] } },
{ "type": "Feature", "properties": { "name": "MONTE BARONE" }, "geometry": { "type": "Point", "coordinates": [ 8.161714, 45.728043 ] } },
{ "type": "Feature", "properties": { "name": "MONTE BIANCO" }, "geometry": { "type": "Point", "coordinates": [ 6.9308894, 45.8005845 ] } },
{ "type": "Feature", "properties": { "name": "MONTE CALINO/SAN PIETRO" }, "geometry": { "type": "Point", "coordinates": [ 10.83865, 45.932746 ] } },
{ "type": "Feature", "properties": { "name": "MONTE MAGGIO" }, "geometry": { "type": "Point", "coordinates": [ 12.81428, 43.26239 ] } },
{ "type": "Feature", "properties": { "name": "MONTE ORSO" }, "geometry": { "type": "Point", "coordinates": [ 14.4693794, 41.4125533 ] } },
{ "type": "Feature", "properties": { "name": "MONTE SERNIO" }, "geometry": { "type": "Point", "coordinates": [ 13.123555, 46.479082 ] } },
{ "type": "Feature", "properties": { "name": "MONTE VELO/CAPANNA DELL' ALPINO" }, "geometry": { "type": "Point", "coordinates": [ 10.93624, 45.90802 ] } },
{ "type": "Feature", "properties": { "name": "MONTELONGA" }, "geometry": { "type": "Point", "coordinates": [ 12.3356, 46.0942 ] } },
{ "type": "Feature", "properties": { "name": "MONZA-BOGANI ARNALDO" }, "geometry": { "type": "Point", "coordinates": [ 9.37893, 45.967392 ] } },
{ "type": "Feature", "properties": { "name": "MONZONI/TARAMELLI TORQUATO" }, "geometry": { "type": "Point", "coordinates": [ 11.740317, 46.394614 ] } },
{ "type": "Feature", "properties": { "name": "MORELLI ZANON" }, "geometry": { "type": "Point", "coordinates": [ 10.514479, 46.172157 ] } },
{ "type": "Feature", "properties": { "name": "MORGANTINI ALBERTO" }, "geometry": { "type": "Point", "coordinates": [ 7.635432, 44.177297 ] } },
{ "type": "Feature", "properties": { "name": "MORO ALDO" }, "geometry": { "type": "Point", "coordinates": [ 11.723431, 46.264646 ] } },
{ "type": "Feature", "properties": { "name": "MULINO NUOVO" }, "geometry": { "type": "Point", "coordinates": [ 8.78208, 44.55895 ] } },
{ "type": "Feature", "properties": { "name": "MUSATTI ALBERTO" }, "geometry": { "type": "Point", "coordinates": [ 12.288416, 46.513133 ] } },
{ "type": "Feature", "properties": { "name": "MUSSO BIAGIO" }, "geometry": { "type": "Point", "coordinates": [ 7.285045, 45.932611 ] } },
{ "type": "Feature", "properties": { "name": "MUZIO GUIDO" }, "geometry": { "type": "Point", "coordinates": [ 7.1860274, 45.4513575 ] } },
{ "type": "Feature", "properties": { "name": "NACAMULI ALESSANDRO/COL COLLON" }, "geometry": { "type": "Point", "coordinates": [ 7.500533, 45.948443 ] } },
{ "type": "Feature", "properties": { "name": "NASSANO ARISTIDE E VITTORIO" }, "geometry": { "type": "Point", "coordinates": [ 9.2571639, 44.728 ] } },
{ "type": "Feature", "properties": { "name": "NATALE DA DEPPO" }, "geometry": { "type": "Point", "coordinates": [ 12.454589, 46.433725 ] } },
{ "type": "Feature", "properties": { "name": "NEBBIA FRANCO" }, "geometry": { "type": "Point", "coordinates": [ 7.360397, 45.655534 ] } },
{ "type": "Feature", "properties": { "name": "NELLO TROIANI" }, "geometry": { "type": "Point", "coordinates": [ 12.8743045, 42.5844982 ] } },
{ "type": "Feature", "properties": { "name": "NEMBRINI CARLO" }, "geometry": { "type": "Point", "coordinates": [ 9.78059, 45.87072 ] } },
{ "type": "Feature", "properties": { "name": "NOASCHETTA" }, "geometry": { "type": "Point", "coordinates": [ 7.32208, 45.46495 ] } },
{ "type": "Feature", "properties": { "name": "NOGARA JOHNDINO E PETER" }, "geometry": { "type": "Point", "coordinates": [ 13.65418, 46.44712 ] } },
{ "type": "Feature", "properties": { "name": "NUVOLAU" }, "geometry": { "type": "Point", "coordinates": [ 12.045896, 46.495299 ] } },
{ "type": "Feature", "properties": { "name": "OBERTO GASPARE/MAROLI PAOLO" }, "geometry": { "type": "Point", "coordinates": [ 7.978836, 45.996546 ] } },
{ "type": "Feature", "properties": { "name": "OGGIONI ANDREA" }, "geometry": { "type": "Point", "coordinates": [ 9.75739, 46.27803 ] } },
{ "type": "Feature", "properties": { "name": "OLMO RINO" }, "geometry": { "type": "Point", "coordinates": [ 10.0375, 45.948 ] } },
{ "type": "Feature", "properties": { "name": "OLTREADIGE AL ROEN" }, "geometry": { "type": "Point", "coordinates": [ 11.197105, 46.364116 ] } },
{ "type": "Feature", "properties": { "name": "OMIO ANTONIO" }, "geometry": { "type": "Point", "coordinates": [ 9.5675189, 46.2493936 ] } },
{ "type": "Feature", "properties": { "name": "ORSIERA" }, "geometry": { "type": "Point", "coordinates": [ 7.097711, 45.077088 ] } },
{ "type": "Feature", "properties": { "name": "OSSERVATORIO PIZZI DENERI" }, "geometry": { "type": "Point", "coordinates": [ 15.02148919735, 37.762804813903998 ] } },
{ "type": "Feature", "properties": { "name": "PACI MARIO" }, "geometry": { "type": "Point", "coordinates": [ 13.575605, 42.8163 ] } },
{ "type": "Feature", "properties": { "name": "PACINI LUIGI" }, "geometry": { "type": "Point", "coordinates": [ 11.0526843, 44.0342955 ] } },
{ "type": "Feature", "properties": { "name": "PALIA" }, "geometry": { "type": "Point", "coordinates": [ 12.01805, 46.13209 ] } },
{ "type": "Feature", "properties": { "name": "PALUDEI" }, "geometry": { "type": "Point", "coordinates": [ 11.22437, 45.97117 ] } },
{ "type": "Feature", "properties": { "name": "PANEPUCCI ALESSANDRI ANTONELLA" }, "geometry": { "type": "Point", "coordinates": [ 13.40713, 42.47534 ] } },
{ "type": "Feature", "properties": { "name": "PANFILO DI GREGORIO" }, "geometry": { "type": "Point", "coordinates": [ 12.92866, 42.54439 ] } },
{ "type": "Feature", "properties": { "name": "PANSERA AMEDEO" }, "geometry": { "type": "Point", "coordinates": [ 9.9501926, 46.3611352 ] } },
{ "type": "Feature", "properties": { "name": "PAPA GEN. ACHILLE" }, "geometry": { "type": "Point", "coordinates": [ 11.186117, 45.783978 ] } },
{ "type": "Feature", "properties": { "name": "PARCO DELL'ANTOLA" }, "geometry": { "type": "Point", "coordinates": [ 9.150086, 44.567589 ] } },
{ "type": "Feature", "properties": { "name": "PARETE ROSSA" }, "geometry": { "type": "Point", "coordinates": [ 11.25717, 46.67445 ] } },
{ "type": "Feature", "properties": { "name": "PARRAVICINI AGOSTINO" }, "geometry": { "type": "Point", "coordinates": [ 9.8833101, 46.3614388 ] } },
{ "type": "Feature", "properties": { "name": "PASSO DELLE VACCHE/SEGALLA EUGENIO" }, "geometry": { "type": "Point", "coordinates": [ 10.594504, 46.098845 ] } },
{ "type": "Feature", "properties": { "name": "PASSO SELLA" }, "geometry": { "type": "Point", "coordinates": [ 11.75707, 46.509312 ] } },
{ "type": "Feature", "properties": { "name": "PASTORE FRANCESCO" }, "geometry": { "type": "Point", "coordinates": [ 7.928187, 45.883792 ] } },
{ "type": "Feature", "properties": { "name": "PEDRONI CARLO/DEL PRA GREGORIO" }, "geometry": { "type": "Point", "coordinates": [ 9.5656518, 46.2957488 ] } },
{ "type": "Feature", "properties": { "name": "PELINO CESARE MARIO" }, "geometry": { "type": "Point", "coordinates": [ 14.086005984693999, 42.086557184134001 ] } },
{ "type": "Feature", "properties": { "name": "PELIZZO GUGLIELMO" }, "geometry": { "type": "Point", "coordinates": [ 13.5386404, 46.2030451 ] } },
{ "type": "Feature", "properties": { "name": "PELLARINI LUIGI" }, "geometry": { "type": "Point", "coordinates": [ 13.508645199406001, 46.440644171907998 ] } },
{ "type": "Feature", "properties": { "name": "PELLER" }, "geometry": { "type": "Point", "coordinates": [ 10.952682, 46.322224 ] } },
{ "type": "Feature", "properties": { "name": "PELLICIOLI LEONE" }, "geometry": { "type": "Point", "coordinates": [ 10.5200218, 46.5039981 ] } },
{ "type": "Feature", "properties": { "name": "PERONA BRUSA RENATO" }, "geometry": { "type": "Point", "coordinates": [ 8.361841, 45.950629 ] } },
{ "type": "Feature", "properties": { "name": "PERUGINI GIULIANO" }, "geometry": { "type": "Point", "coordinates": [ 12.48214, 46.39738 ] } },
{ "type": "Feature", "properties": { "name": "PESCIOLA" }, "geometry": { "type": "Point", "coordinates": [ 10.00579, 46.06296 ] } },
{ "type": "Feature", "properties": { "name": "PETAZZI BRUNO" }, "geometry": { "type": "Point", "coordinates": [ 9.312603, 46.233169 ] } },
{ "type": "Feature", "properties": { "name": "PIAN CAVALLONE" }, "geometry": { "type": "Point", "coordinates": [ 8.539414, 46.013363 ] } },
{ "type": "Feature", "properties": { "name": "PIAN DE FONTANA" }, "geometry": { "type": "Point", "coordinates": [ 12.176104, 46.261834 ] } },
{ "type": "Feature", "properties": { "name": "PIAN DELLA BALLOTTA" }, "geometry": { "type": "Point", "coordinates": [ 7.1159308, 45.4600925 ] } },
{ "type": "Feature", "properties": { "name": "PIAN DELLA FIOBA" }, "geometry": { "type": "Point", "coordinates": [ 10.205638, 44.058607 ] } },
{ "type": "Feature", "properties": { "name": "PIAN DELLA RENA" }, "geometry": { "type": "Point", "coordinates": [ 10.37402, 43.4933 ] } },
{ "type": "Feature", "properties": { "name": "PIAN DELLE BOSSE" }, "geometry": { "type": "Point", "coordinates": [ 8.20714, 44.174226 ] } },
{ "type": "Feature", "properties": { "name": "PIATTI CARLO/CASTELLI EMILIO" }, "geometry": { "type": "Point", "coordinates": [ 9.306943, 46.363423 ] } },
{ "type": "Feature", "properties": { "name": "PIAZZA BRUNO" }, "geometry": { "type": "Point", "coordinates": [ 7.7396497, 45.5134869 ] } },
{ "type": "Feature", "properties": { "name": "PICCO IVIGNA" }, "geometry": { "type": "Point", "coordinates": [ 11.2393, 46.69446 ] } },
{ "type": "Feature", "properties": { "name": "PIERO CONCIA" }, "geometry": { "type": "Point", "coordinates": [ 13.48659, 42.11983 ] } },
{ "type": "Feature", "properties": { "name": "PIERO VACCA" }, "geometry": { "type": "Point", "coordinates": [ 6.9471225, 45.1926325 ] } },
{ "type": "Feature", "properties": { "name": "PIETRO GALASSI CITTA' DI MESTRE" }, "geometry": { "type": "Point", "coordinates": [ 12.2617621, 46.4706642 ] } },
{ "type": "Feature", "properties": { "name": "PIOVAN FRANCO" }, "geometry": { "type": "Point", "coordinates": [ 12.427267, 46.614697 ] } },
{ "type": "Feature", "properties": { "name": "PIRLO GIORGIO" }, "geometry": { "type": "Point", "coordinates": [ 10.55701, 45.677979 ] } },
{ "type": "Feature", "properties": { "name": "PITTIONI SANDRO/STAFUZZA MAURO" }, "geometry": { "type": "Point", "coordinates": [ 13.38081, 46.43299 ] } },
{ "type": "Feature", "properties": { "name": "PIVA ARMANDO" }, "geometry": { "type": "Point", "coordinates": [ 12.552996, 46.652608 ] } },
{ "type": "Feature", "properties": { "name": "PIZZINI LUIGI/FRATTOLA AUGUSTO CARLO" }, "geometry": { "type": "Point", "coordinates": [ 10.57864, 46.4526249 ] } },
{ "type": "Feature", "properties": { "name": "PLAN DE CORONES" }, "geometry": { "type": "Point", "coordinates": [ 11.95733, 46.74061 ] } },
{ "type": "Feature", "properties": { "name": "POCCHIOLA MARCO/MENEGHELLO GIUSEPPE" }, "geometry": { "type": "Point", "coordinates": [ 7.396766, 45.487724 ] } },
{ "type": "Feature", "properties": { "name": "POMILIO BRUNO" }, "geometry": { "type": "Point", "coordinates": [ 14.1326021, 42.1607943 ] } },
{ "type": "Feature", "properties": { "name": "PONTI CESARE" }, "geometry": { "type": "Point", "coordinates": [ 9.722722, 46.251306 ] } },
{ "type": "Feature", "properties": { "name": "PORCILI" }, "geometry": { "type": "Point", "coordinates": [ 10.00033, 44.3836885 ] } },
{ "type": "Feature", "properties": { "name": "PORDENONE" }, "geometry": { "type": "Point", "coordinates": [ 12.489999, 46.381388 ] } },
{ "type": "Feature", "properties": { "name": "PORRO AUGUSTO/GERLI AMERIGO MARIA" }, "geometry": { "type": "Point", "coordinates": [ 9.7768265, 46.2983291 ] } },
{ "type": "Feature", "properties": { "name": "PORTA CARLO" }, "geometry": { "type": "Point", "coordinates": [ 9.395972, 45.910362 ] } },
{ "type": "Feature", "properties": { "name": "PORTAFRANCA" }, "geometry": { "type": "Point", "coordinates": [ 10.853345, 44.097664 ] } },
{ "type": "Feature", "properties": { "name": "POSTO TAPPA AVML" }, "geometry": { "type": "Point", "coordinates": [ 8.9361, 44.55132 ] } },
{ "type": "Feature", "properties": { "name": "POZZE" }, "geometry": { "type": "Point", "coordinates": [ 10.929426, 46.414674 ] } },
{ "type": "Feature", "properties": { "name": "POZZO DI MEZZANOTTE" }, "geometry": { "type": "Point", "coordinates": [ 12.792089, 42.881866 ] } },
{ "type": "Feature", "properties": { "name": "PRA CASTRON/COSTANZI CLAUDIO" }, "geometry": { "type": "Point", "coordinates": [ 10.89567, 46.27894 ] } },
{ "type": "Feature", "properties": { "name": "PRABELLO" }, "geometry": { "type": "Point", "coordinates": [ 9.072825, 45.9131 ] } },
{ "type": "Feature", "properties": { "name": "PRADIDALI" }, "geometry": { "type": "Point", "coordinates": [ 11.85432, 46.24431 ] } },
{ "type": "Feature", "properties": { "name": "PRATI PINO AI BINDESI" }, "geometry": { "type": "Point", "coordinates": [ 11.153928, 46.036163 ] } },
{ "type": "Feature", "properties": { "name": "PREMUDA MARIO" }, "geometry": { "type": "Point", "coordinates": [ 13.8658619, 45.6194408 ] } },
{ "type": "Feature", "properties": { "name": "PRESANELLA/ROBERTI VITTORIO" }, "geometry": { "type": "Point", "coordinates": [ 10.695924, 46.192095 ] } },
{ "type": "Feature", "properties": { "name": "PRUDENZINI PAOLO" }, "geometry": { "type": "Point", "coordinates": [ 10.501806, 46.123666 ] } },
{ "type": "Feature", "properties": { "name": "PUEZ" }, "geometry": { "type": "Point", "coordinates": [ 11.829247, 46.590099 ] } },
{ "type": "Feature", "properties": { "name": "PULITI ADELMO" }, "geometry": { "type": "Point", "coordinates": [ 10.24663, 44.06471 ] } },
{ "type": "Feature", "properties": { "name": "PUSSA" }, "geometry": { "type": "Point", "coordinates": [ 12.5950548, 46.3453295 ] } },
{ "type": "Feature", "properties": { "name": "RANUZZI SEGNI" }, "geometry": { "type": "Point", "coordinates": [ 11.15, 44.15 ] } },
{ "type": "Feature", "properties": { "name": "RAUZI" }, "geometry": { "type": "Point", "coordinates": [ 9.749885, 46.268857 ] } },
{ "type": "Feature", "properties": { "name": "REALI RENATO" }, "geometry": { "type": "Point", "coordinates": [ 11.9233079, 46.2478577 ] } },
{ "type": "Feature", "properties": { "name": "REDAELLI ALFREDO" }, "geometry": { "type": "Point", "coordinates": [ 9.58873, 46.29469 ] } },
{ "type": "Feature", "properties": { "name": "REGI" }, "geometry": { "type": "Point", "coordinates": [ 8.427103, 46.180207 ] } },
{ "type": "Feature", "properties": { "name": "REGONDI NINO/GAVAZZI PIETRO" }, "geometry": { "type": "Point", "coordinates": [ 7.3416259, 45.8767246 ] } },
{ "type": "Feature", "properties": { "name": "REMEDIO MARIO" }, "geometry": { "type": "Point", "coordinates": [ 10.28209, 45.83548 ] } },
{ "type": "Feature", "properties": { "name": "REMONDINO FRANCO" }, "geometry": { "type": "Point", "coordinates": [ 7.2956836, 44.1633611 ] } },
{ "type": "Feature", "properties": { "name": "RESEGONE" }, "geometry": { "type": "Point", "coordinates": [ 9.4890605, 45.8559417 ] } },
{ "type": "Feature", "properties": { "name": "RESEGOTTI LUIGINA" }, "geometry": { "type": "Point", "coordinates": [ 7.900306, 45.926354 ] } },
{ "type": "Feature", "properties": { "name": "RESNATI ENRICO" }, "geometry": { "type": "Point", "coordinates": [ 9.9992986, 46.0838313 ] } },
{ "type": "Feature", "properties": { "name": "REVELLI GINO" }, "geometry": { "type": "Point", "coordinates": [ 7.423298, 45.520238 ] } },
{ "type": "Feature", "properties": { "name": "REY GUIDO" }, "geometry": { "type": "Point", "coordinates": [ 6.756183, 45.027305 ] } },
{ "type": "Feature", "properties": { "name": "RIELLA ANGELO" }, "geometry": { "type": "Point", "coordinates": [ 9.197726, 45.861878 ] } },
{ "type": "Feature", "properties": { "name": "RINALDI MASSIMO" }, "geometry": { "type": "Point", "coordinates": [ 12.9899837, 42.4674053 ] } },
{ "type": "Feature", "properties": { "name": "RIO BIANCO" }, "geometry": { "type": "Point", "coordinates": [ 13.3104, 46.2532 ] } },
{ "type": "Feature", "properties": { "name": "RIVETTI ALFREDO" }, "geometry": { "type": "Point", "coordinates": [ 7.93585, 45.719178 ] } },
{ "type": "Feature", "properties": { "name": "ROBINET" }, "geometry": { "type": "Point", "coordinates": [ 7.166566, 45.041718 ] } },
{ "type": "Feature", "properties": { "name": "ROCCOLI LORLA" }, "geometry": { "type": "Point", "coordinates": [ 9.36703, 46.09637 ] } },
{ "type": "Feature", "properties": { "name": "RODA DI VAEL" }, "geometry": { "type": "Point", "coordinates": [ 11.630137, 46.420185 ] } },
{ "type": "Feature", "properties": { "name": "RODODENDRO" }, "geometry": { "type": "Point", "coordinates": [ 11.10835, 46.24626 ] } },
{ "type": "Feature", "properties": { "name": "ROMANO CIMENTI/CIRILLO FLOREANINI" }, "geometry": { "type": "Point", "coordinates": [ 13.0682, 46.420218 ] } },
{ "type": "Feature", "properties": { "name": "ROSALBA" }, "geometry": { "type": "Point", "coordinates": [ 9.37625, 45.922333 ] } },
{ "type": "Feature", "properties": { "name": "ROSARIO" }, "geometry": { "type": "Point", "coordinates": [ 10.231419, 44.283303 ] } },
{ "type": "Feature", "properties": { "name": "ROSETTA/PEDROTTI GIOVANNI" }, "geometry": { "type": "Point", "coordinates": [ 11.839028, 46.267423 ] } },
{ "type": "Feature", "properties": { "name": "ROSSI ENRICO ALLA PANIA" }, "geometry": { "type": "Point", "coordinates": [ 10.3324325, 44.0395648 ] } },
{ "type": "Feature", "properties": { "name": "ROSSI GIORGIO/VOLANTE CESARE" }, "geometry": { "type": "Point", "coordinates": [ 7.770702, 45.929671 ] } },
{ "type": "Feature", "properties": { "name": "SACCHI UMBERTO" }, "geometry": { "type": "Point", "coordinates": [ 9.491581, 44.561158 ] } },
{ "type": "Feature", "properties": { "name": "SAENT/DORIGONI SILVIO" }, "geometry": { "type": "Point", "coordinates": [ 10.75193, 46.46063 ] } },
{ "type": "Feature", "properties": { "name": "SAGLIO SILVIO" }, "geometry": { "type": "Point", "coordinates": [ 9.5674857, 46.2495575 ] } },
{ "type": "Feature", "properties": { "name": "SAJOUNCHE'" }, "geometry": { "type": "Point", "coordinates": [ 8.035146, 45.836467 ] } },
{ "type": "Feature", "properties": { "name": "SALINELLO" }, "geometry": { "type": "Point", "coordinates": [ 13.63, 42.75 ] } },
{ "type": "Feature", "properties": { "name": "SALVADORI DAVIDE" }, "geometry": { "type": "Point", "coordinates": [ 10.223889, 46.087784 ] } },
{ "type": "Feature", "properties": { "name": "SAN CAMILLO" }, "geometry": { "type": "Point", "coordinates": [ 7.148763, 45.271016 ] } },
{ "type": "Feature", "properties": { "name": "SAN FERMO" }, "geometry": { "type": "Point", "coordinates": [ 10.1696729, 45.9592674 ] } },
{ "type": "Feature", "properties": { "name": "SAN MARCO" }, "geometry": { "type": "Point", "coordinates": [ 12.22801, 46.47666 ] } },
{ "type": "Feature", "properties": { "name": "SAN MAURO" }, "geometry": { "type": "Point", "coordinates": [ 14.29446, 41.744876 ] } },
{ "type": "Feature", "properties": { "name": "SAN NICOLA" }, "geometry": { "type": "Point", "coordinates": [ 13.3426, 42.2903 ] } },
{ "type": "Feature", "properties": { "name": "SANREMO TINO GAUZZI" }, "geometry": { "type": "Point", "coordinates": [ 7.734987, 44.057398 ] } },
{ "type": "Feature", "properties": { "name": "SANTA BARBARA" }, "geometry": { "type": "Point", "coordinates": [ 10.8300046, 45.8839389 ] } },
{ "type": "Feature", "properties": { "name": "SANTA PUPA" }, "geometry": { "type": "Point", "coordinates": [ 13.2837, 42.4723 ] } },
{ "type": "Feature", "properties": { "name": "SAPIENZA GIOVANNI" }, "geometry": { "type": "Point", "coordinates": [ 14.998611, 37.700277 ] } },
{ "type": "Feature", "properties": { "name": "SASSETO" }, "geometry": { "type": "Point", "coordinates": [ 10.82731, 44.1173 ] } },
{ "type": "Feature", "properties": { "name": "SAVIGLIANO" }, "geometry": { "type": "Point", "coordinates": [ 7.02434, 44.62695 ] } },
{ "type": "Feature", "properties": { "name": "SAVONA" }, "geometry": { "type": "Point", "coordinates": [ 7.93347, 44.19871 ] } },
{ "type": "Feature", "properties": { "name": "SBERNA SEBASTIANO E RENZO" }, "geometry": { "type": "Point", "coordinates": [ 7.2683912, 45.543199 ] } },
{ "type": "Feature", "properties": { "name": "SCARFIOTTI CAMILLO/CROSETTO SILVIA" }, "geometry": { "type": "Point", "coordinates": [ 6.801855, 45.132533 ] } },
{ "type": "Feature", "properties": { "name": "SCARPA ENRICO/GUREKIAN OHANNES" }, "geometry": { "type": "Point", "coordinates": [ 11.961111, 46.259722 ] } },
{ "type": "Feature", "properties": { "name": "SCOGGIONE" }, "geometry": { "type": "Point", "coordinates": [ 9.41605, 46.11041 ] } },
{ "type": "Feature", "properties": { "name": "SEBASTIANI ANGELO" }, "geometry": { "type": "Point", "coordinates": [ 13.01013, 42.46969 ] } },
{ "type": "Feature", "properties": { "name": "SEBASTIANI VINCENZO" }, "geometry": { "type": "Point", "coordinates": [ 13.392376, 42.179067 ] } },
{ "type": "Feature", "properties": { "name": "SEGANTINI GIOVANNI VAL D'AMOLA" }, "geometry": { "type": "Point", "coordinates": [ 10.710805, 46.209219 ] } },
{ "type": "Feature", "properties": { "name": "SELLA EUGENIO" }, "geometry": { "type": "Point", "coordinates": [ 7.912369, 45.987525 ] } },
{ "type": "Feature", "properties": { "name": "SELLA QUINTINO" }, "geometry": { "type": "Point", "coordinates": [ 7.10974, 44.66562 ] } },
{ "type": "Feature", "properties": { "name": "SELLA QUINTINO AL FELIK (NUOVO E VECCHIO)" }, "geometry": { "type": "Point", "coordinates": [ 7.792781, 45.901117 ] } },
{ "type": "Feature", "properties": { "name": "SELLA QUINTINO" }, "geometry": { "type": "Point", "coordinates": [ 6.84365, 45.819406 ] } },
{ "type": "Feature", "properties": { "name": "SELLA VITTORIO" }, "geometry": { "type": "Point", "coordinates": [ 7.303272, 45.5801976 ] } },
{ "type": "Feature", "properties": { "name": "SEMENZA CARLO E MASSIMO" }, "geometry": { "type": "Point", "coordinates": [ 12.489694, 46.134086 ] } },
{ "type": "Feature", "properties": { "name": "SETTE SELLE" }, "geometry": { "type": "Point", "coordinates": [ 11.39237, 46.132331 ] } },
{ "type": "Feature", "properties": { "name": "SETTIMO ALPINI" }, "geometry": { "type": "Point", "coordinates": [ 12.188611, 46.221943 ] } },
{ "type": "Feature", "properties": { "name": "SEVERINO BESSONE AL LAGO VERDE" }, "geometry": { "type": "Point", "coordinates": [ 7.0205474, 44.8280424 ] } },
{ "type": "Feature", "properties": { "name": "SIGOT MARIO" }, "geometry": { "type": "Point", "coordinates": [ 6.8616037, 45.1134403 ] } },
{ "type": "Feature", "properties": { "name": "SILVESTRI GUIDO" }, "geometry": { "type": "Point", "coordinates": [ 9.40385, 46.09352 ] } },
{ "type": "Feature", "properties": { "name": "SINEL/PEDRINOLLA GIANNI" }, "geometry": { "type": "Point", "coordinates": [ 11.107885, 45.734379 ] } },
{ "type": "Feature", "properties": { "name": "SLATAPER GIULIANO E SCIPIO" }, "geometry": { "type": "Point", "coordinates": [ 12.2162751, 46.5001013 ] } },
{ "type": "Feature", "properties": { "name": "SOARDI NINO" }, "geometry": { "type": "Point", "coordinates": [ 7.1677639414563, 45.345650501369001 ] } },
{ "type": "Feature", "properties": { "name": "SOLDINI MONTANARO ELISABETTA" }, "geometry": { "type": "Point", "coordinates": [ 6.837412, 45.767012 ] } },
{ "type": "Feature", "properties": { "name": "SOMMA LOMBARDO" }, "geometry": { "type": "Point", "coordinates": [ 8.35298, 46.42053 ] } },
{ "type": "Feature", "properties": { "name": "SOMMAFIUME" }, "geometry": { "type": "Point", "coordinates": [ 9.13164, 46.13996 ] } },
{ "type": "Feature", "properties": { "name": "SOMMARIVA AL PRAMPERET" }, "geometry": { "type": "Point", "coordinates": [ 12.163704, 46.288961 ] } },
{ "type": "Feature", "properties": { "name": "SONINO ADOLFO AL COLDAI" }, "geometry": { "type": "Point", "coordinates": [ 12.068889, 46.399387 ] } },
{ "type": "Feature", "properties": { "name": "SPAGNOLLI GIOVANNI" }, "geometry": { "type": "Point", "coordinates": [ 12.527497, 46.50463 ] } },
{ "type": "Feature", "properties": { "name": "SPATARO FRANCO" }, "geometry": { "type": "Point", "coordinates": [ 7.393374, 45.88734 ] } },
{ "type": "Feature", "properties": { "name": "SPERANZA" }, "geometry": { "type": "Point", "coordinates": [ 7.466455, 44.131056 ] } },
{ "type": "Feature", "properties": { "name": "SPERTI GIANANGELO E IRIS" }, "geometry": { "type": "Point", "coordinates": [ 12.1779973, 46.2235339 ] } },
{ "type": "Feature", "properties": { "name": "SPRUGGIO/TONINI GIOVANNI" }, "geometry": { "type": "Point", "coordinates": [ 11.35371, 46.166119 ] } },
{ "type": "Feature", "properties": { "name": "STAVEL/DENZA FRANCESCO" }, "geometry": { "type": "Point", "coordinates": [ 10.655241, 46.243407 ] } },
{ "type": "Feature", "properties": { "name": "STAZZO DI CARAMANICO/DI MARCO MARCELLO" }, "geometry": { "type": "Point", "coordinates": [ 14.098511, 42.15137 ] } },
{ "type": "Feature", "properties": { "name": "STEFANETTI ANDREA/ERCOLE/ANTONIO" }, "geometry": { "type": "Point", "coordinates": [ 8.228496, 46.188332 ] } },
{ "type": "Feature", "properties": { "name": "STIVO/MARCHETTI PROSPERO" }, "geometry": { "type": "Point", "coordinates": [ 10.961919, 45.921141 ] } },
{ "type": "Feature", "properties": { "name": "STOPPANI ANTONIO" }, "geometry": { "type": "Point", "coordinates": [ 9.445277, 45.856666 ] } },
{ "type": "Feature", "properties": { "name": "STROPPIA" }, "geometry": { "type": "Point", "coordinates": [ 6.89834, 44.50929 ] } },
{ "type": "Feature", "properties": { "name": "STUPARICH CARLO E GIANI" }, "geometry": { "type": "Point", "coordinates": [ 13.44788, 46.44487 ] } },
{ "type": "Feature", "properties": { "name": "SURETTA" }, "geometry": { "type": "Point", "coordinates": [ 9.3614429, 46.5021181 ] } },
{ "type": "Feature", "properties": { "name": "SURINGAR ADRIANO" }, "geometry": { "type": "Point", "coordinates": [ 13.4283417, 46.436733 ] } },
{ "type": "Feature", "properties": { "name": "TAGLIAFERRI NANI" }, "geometry": { "type": "Point", "coordinates": [ 10.11458, 46.05537 ] } },
{ "type": "Feature", "properties": { "name": "TALARICO ALFREDO" }, "geometry": { "type": "Point", "coordinates": [ 6.98195, 44.323525 ] } },
{ "type": "Feature", "properties": { "name": "TALM" }, "geometry": { "type": "Point", "coordinates": [ 12.815272, 46.532386 ] } },
{ "type": "Feature", "properties": { "name": "TAVEGGIA ANGELO" }, "geometry": { "type": "Point", "coordinates": [ 9.7680571, 46.2738604 ] } },
{ "type": "Feature", "properties": { "name": "TAZZETTI ERNESTO" }, "geometry": { "type": "Point", "coordinates": [ 7.096823, 45.210069 ] } },
{ "type": "Feature", "properties": { "name": "TELESPAZIO" }, "geometry": { "type": "Point", "coordinates": [ 13.4799603, 42.1362116 ] } },
{ "type": "Feature", "properties": { "name": "TEODULO" }, "geometry": { "type": "Point", "coordinates": [ 7.708506, 45.94406 ] } },
{ "type": "Feature", "properties": { "name": "TETE DES ROESES" }, "geometry": { "type": "Point", "coordinates": [ 7.57626, 45.94937 ] } },
{ "type": "Feature", "properties": { "name": "TISSI ATTILIO" }, "geometry": { "type": "Point", "coordinates": [ 12.03323, 46.38804 ] } },
{ "type": "Feature", "properties": { "name": "TIZIANO" }, "geometry": { "type": "Point", "coordinates": [ 12.31419, 46.5148 ] } },
{ "type": "Feature", "properties": { "name": "TOESCA PIER GIOACCHINO" },